     3.05           OBSERVATION DATA    M (MIXED)           RINEX VERSION / TYPE
sbf2rin-13.4.5                          20220706 130812 UTC PGM / RUN BY / DATE
gfzrnx-1.16-8177    FILE MERGE          20220706 132211 UTC COMMENT
ESBC00DNK                                                   MARKER NAME
10118M001                                                   MARKER NUMBER
SDFE                SDFE                                    OBSERVER / AGENCY
3047937             SEPT POLARX5        5.2.0               REC # / TYPE / VERS
CR5200327016        ASH701945E_M    SCIS                    ANT # / TYPE
        0.2160        0.0000        0.0000                  ANTENNA: DELTA H/E/N
  3582105.2910   532589.7313  5232754.8054                  APPROX POSITION XYZ
C   12 C2I C6I C7I D2I D6I D7I L2I L6I L7I S2I S6I S7I      SYS / # / OBS TYPES
E   20 C1C C5Q C6C C7Q C8Q D1C D5Q D6C D7Q D8Q L1C L5Q L6C  SYS / # / OBS TYPES
       L7Q L8Q S1C S5Q S6C S7Q S8Q                          SYS / # / OBS TYPES
G   18 C1C C1W C2L C2W C5Q D1C D2L D2W D5Q L1C L2L L2W L5Q  SYS / # / OBS TYPES
       S1C S1W S2L S2W S5Q                                  SYS / # / OBS TYPES
J   12 C1C C2L C5Q D1C D2L D5Q L1C L2L L5Q S1C S2L S5Q      SYS / # / OBS TYPES
R   20 C1C C1P C2C C2P C3Q D1C D1P D2C D2P D3Q L1C L1P L2C  SYS / # / OBS TYPES
       L2P L3Q S1C S1P S2C S2P S3Q                          SYS / # / OBS TYPES
S    8 C1C C5I D1C D5I L1C L5I S1C S5I                      SYS / # / OBS TYPES
DBHZ                                                        SIGNAL STRENGTH UNIT
C L2I                                                       SYS / PHASE SHIFT
C L6I                                                       SYS / PHASE SHIFT
C L7I                                                       SYS / PHASE SHIFT
E L1C  0.00000                                              SYS / PHASE SHIFT
E L5Q  0.00000                                              SYS / PHASE SHIFT
E L6C  0.00000                                              SYS / PHASE SHIFT
E L7Q  0.00000                                              SYS / PHASE SHIFT
E L8Q  0.00000                                              SYS / PHASE SHIFT
G L1C                                                       SYS / PHASE SHIFT
G L2L  0.00000                                              SYS / PHASE SHIFT
G L2W                                                       SYS / PHASE SHIFT
G L5Q  0.00000                                              SYS / PHASE SHIFT
J L1C                                                       SYS / PHASE SHIFT
R L1C                                                       SYS / PHASE SHIFT
R L1P  0.00000                                              SYS / PHASE SHIFT
R L2C                                                       SYS / PHASE SHIFT
R L2P  0.00000                                              SYS / PHASE SHIFT
R L3Q  0.00000                                              SYS / PHASE SHIFT
S L1C                                                       SYS / PHASE SHIFT
S L5I                                                       SYS / PHASE SHIFT
J L2L  0.00000                                              SYS / PHASE SHIFT
J L5Q  0.00000                                              SYS / PHASE SHIFT
INITIAL_RINEX_VERSION: 3.04                                 COMMENT
SEPTENTRIO RECEIVERS OUTPUT ALIGNED CARRIER PHASES.         COMMENT
NO FURTHER PHASE SHIFT APPLIED IN THE RINEX ENCODER.        COMMENT
 23 R01  1 R02 -4 R03  5 R04  6 R05  1 R06 -4 R07  5 R08  6 GLONASS SLOT / FRQ #
    R09 -2 R10 -7 R11  0 R12 -1 R13 -2 R14 -7 R15  0 R16 -1 GLONASS SLOT / FRQ #
    R17  4 R18 -3 R19  3 R20  2 R21  4 R23  3 R24  2        GLONASS SLOT / FRQ #
GEODETIC                                                    MARKER TYPE
GFZRNX.NUM_EPOCHS: 0                                        COMMENT
     0                                                      # OF SATELLITES
    30.000                                                  INTERVAL
  2020     6    25     0     0    0.0000000     GPS         TIME OF FIRST OBS
  2020     6    25     0    59   30.0000000     GPS         TIME OF LAST OBS
                                                            END OF HEADER
> 2020 06 25 00 00 00.0000000  0 43
C05  40715949.461 5                  40715946.882 6        -2.196 5                        -1.633 6 212018673.07105                 163946288.27506        34.500                          38.000
C07  39491936.793 6  39491927.647 5  39491931.984 7      -484.694 6      -394.144 5      -374.896 7 205644910.73906 167103300.43705 159017680.34007        38.500          32.750          42.500
C10  38352566.929 7  38352559.892 5  38352564.245 7       246.594 7       200.415 5       190.699 7 199711909.89707 162282258.24405 154429919.85807        42.750          35.500          45.250
C12  26299450.773 6  26299444.820 5  26299448.691 6       586.982 6       477.176 5       454.065 6 136948138.73606 111281558.94405 105896986.15406        36.250          31.250          41.000
C19  23804752.822 7  23804746.558 6                      2537.169 7      2061.683 6                 123957629.80607 100725706.08106                        46.750          40.000
C20  22145206.876 8  22145197.109 7                      -325.313 8      -264.326 7                 115315936.11108  93703613.10707                        52.750          45.500
C23  23510863.108 8                                     -1962.016 8                                 122427266.79008                                        49.750
C32  24521966.313 7  24521965.909 6                     -3014.133 7     -2449.140 6                 127692344.57107 103760504.39906                        46.250          38.500
C34  27164429.269 6  27164428.989 5                      1620.898 6      1316.910 5                 141452309.88706 114941586.90505                        38.000          30.500
C37  22426185.919 8                                      1204.872 8                                 116779058.84008                                        52.250
E01  27616185.992 6  27616184.819 5  27616182.308 4  27616184.997 6  27616184.366 6     -2620.702 6     -1957.227 5     -2127.515 4     -2008.154 6     -1982.658 6 145124050.10606 108371872.76005 117795484.95904 111198966.55706 109785420.22706        37.500          32.500          28.250          40.750          40.750
E03  27055946.391 6  27055945.532 5                  27055946.711 7  27055945.690 7      2664.689 6      1989.742 5                      2041.746 7      2015.766 7 142179967.77806 106173364.68605                 108943109.41507 107558234.12507        39.000          34.250                          43.000          43.000
E05  23730317.923 8  23730316.788 7  23730312.049 6  23730317.528 8  23730316.490 8       764.306 8       570.783 7       620.333 6       585.634 8       578.192 8 124703702.22008  93122915.92107 101220495.25106  95552211.25908  94337540.66508        49.500          44.000          40.250          53.000          53.000
E09  22756243.562 8  22756242.295 6  22756238.769 6  22756242.917 8  22756241.958 8     -1851.121 8     -1382.383 6     -1502.626 6     -1418.438 8     -1400.400 8 119584910.61108  89300442.79106  97065632.48006  91630017.31408  90465229.12508        48.000          41.500          37.500          50.500          50.250
E13  27978718.264 6  27978716.335 5                  27978718.347 6  27978716.704 6      1366.608 6      1020.402 5                      1047.011 6      1033.706 6 147029158.32706 109794501.18405                 112658705.75506 111226601.04906        36.000          30.000                          40.750          40.250
E15  26889610.666 6  26889610.961 5  26889605.887 4  26889611.867 7  26889610.803 7     -1132.569 6      -845.872 5      -919.019 4      -867.743 7      -856.752 7 141305866.86906 105520617.36505 114696301.33904 108273333.21807 106896973.85307        37.750          32.750          29.500          42.000          42.000
E24  23636670.553 7  23636680.074 6  23636658.192 5  23636680.852 7  23636679.922 8      2563.967 7      1914.621 6      2081.105 5      1964.654 7      1939.659 8 124211548.36407  92755422.74406 100821011.85905  95175128.42007  93965277.65408        45.500          39.000          35.000          47.750          48.000
E31  24566160.392 7  24566159.582 6  24566154.455 6  24566160.375 8  24566159.351 8      -164.180 7      -122.619 6      -133.047 6      -125.769 8      -124.172 8 129096072.83207  96402914.19206 104785736.17306  98917781.44608  97660341.89308        47.750          41.500          37.750          50.500          50.500
G02  25847357.745 3                                                                     -3123.088 3                                                                                                                        22.000
G05  20947300.931 8  20947300.507 9  20947301.155 7  20947300.413 9                     -1037.205 8      -808.180 7      -808.209 9                 110078836.38908  85775716.72307  85775729.71809                        50.500          55.000          47.250          55.000
G07  21777182.297 8  21777181.730 8  21777181.805 7  21777181.716 8                     -1843.922 8     -1436.857 7     -1436.824 8                 114439911.63508  89173983.26807  89173970.25408                        49.000          51.750          44.750          51.750
G08  24985914.282 6  24985913.625 5  24985918.556 6  24985917.497 5  24985909.884 4      1958.974 6      1526.438 6      1526.473 5      1463.305 4 131301866.32106 102313160.46806 102313154.46205  98050086.08604        36.500          32.750          38.500          32.750          28.750
G09  24545460.880 6  24545460.330 5  24545463.548 6  24545462.948 5  24545458.453 5     -3465.631 6     -2700.368 6     -2700.489 5     -2588.158 5 128987295.99906 100509610.29906 100509612.31905  96321695.87405        38.500          33.500          38.250          33.500          33.000
G13  21695570.939 8  21695570.372 6                  21695569.941 6                      2501.209 8                      1948.995 6                 114011024.75108                  88839770.26006                        48.750          37.000                          37.000
G15  24050353.947 6  24050353.545 3  24050353.862 6  24050353.688 3                      3556.637 6      2771.508 6      2771.392 3                 126385473.46806  98482218.97306  98482204.97803                        39.250          22.250          36.500          22.250
G18  24140002.290 6  24140001.946 3  24140003.020 6  24140002.515 3  24140002.415 6      1196.887 6       932.590 6       932.636 3       893.848 6 126856581.78306  98849278.39206  98849280.39903  94730564.10806        38.000          21.250          38.500          21.250          36.500
G21  26293032.534 5  26293031.466 1                  26293031.291 1                      2019.560 5                      1573.693 1                 138170813.28605                 107665570.96101                        34.500          10.250                          10.250
G27  24755349.228 6  24755348.518 5  24755351.984 5  24755351.282 5  24755347.005 5       473.939 6       369.144 5       369.298 5       353.916 5 130090243.39306 101369032.55505 101369029.54905  97145302.03905        38.750          31.750          35.000          31.750          33.250
G28  23440614.175 6  23440613.223 3                  23440613.768 3                      3227.634 6                      2515.056 3                 123181266.58806                  95985402.98303                        40.500          23.500                          23.500
G30  20621361.127 8  20621360.184 9  20621363.448 8  20621363.021 9  20621358.355 7        90.272 8        70.321 8        70.339 9        67.470 7 108366020.64508  84441088.84208  84441080.84109  80922683.74407        51.750          57.250          50.000          57.250          46.500
R01  19307563.721 7  19307563.663 7  19307572.471 7  19307573.029 7                      -465.042 7      -465.013 7      -361.641 7      -361.715 7                 103210031.73707 103210027.73607  80274505.45707  80274512.47007                        46.250          45.750          45.000          44.750
R02  21952994.458 7  21952995.474 7  21953002.278 7  21953002.492 7                      3683.676 7      3683.626 7      2865.099 7      2865.056 7                 117145418.31107 117145413.30307  91113138.74707  91113144.74107                        46.500          45.500          44.250          44.250
R08  21367773.379 7  21367773.744 6  21367781.225 7  21367781.700 7                     -3308.695 7     -3308.690 6     -2573.516 7     -2573.467 7                 114423493.47307 114423492.49106  88996094.36207  88996106.35107                        42.000          41.250          44.500          44.250
R09  23083617.394 6  23083617.526 6  23083623.160 6  23083623.276 6  23083604.720 6     -4072.288 6     -4072.361 6     -3167.399 6     -3167.086 6     -3057.482 6 123265261.95706 123265246.97606  95873010.19806  95873015.17906  92553138.31106        40.250          40.000          40.500          40.250          38.750
R10  20294115.282 8  20294114.750 8                                                     -2205.711 8     -2205.722 8                                                 108179051.35608 108179070.35908                                                        49.750          49.750
R11  20155568.446 8  20155568.887 8  20155575.968 8  20155575.944 8                      2526.351 8      2526.375 8      1964.925 8      1964.885 8                 107705250.93608 107705261.94008  83770790.41708  83770791.40908                        50.250          49.750          48.500          48.500
R12  23716759.920 6  23716760.396 6  23716769.123 6  23716768.396 6                      4528.085 6      4528.076 6      3522.038 6      3521.825 6                 126690670.52006 126690671.53006  98537206.63106  98537226.63806                        40.000          39.500          36.000          36.000
R17  23475090.450 6  23475090.728 6  23475099.870 6  23475099.552 6                     -3111.200 6     -3111.414 6     -2419.836 6     -2419.896 6                 125619948.18906 125619963.19406  97704452.72806  97704446.71306                        38.000          37.000          38.500          38.000
R18  22840854.076 6  22840854.035 6  22840863.082 7  22840862.860 7                       -79.741 6       -79.736 6       -62.024 7       -62.000 7                 121926058.44506 121926054.43606  94831398.45807  94831404.44907                        40.750          40.000          42.750          42.750
R19                                  24133989.245 5                                                                      2323.965 5                                                                 100411554.25105                                                                        33.500
S23  39369577.519 6  39369549.461 5         3.466 6         2.493 5 206888973.73406 154494497.39905        40.500          32.250
S25  40360467.253 6                      -215.882 6                 212095300.18706                        37.000
S36  39057532.413 6  39057507.977 5         -.920 6         -.515 5 205250002.85506 153270632.78205        41.250          35.000
> 2020 06 25 00 00 30.0000000  0 43
C05  40715964.078 5                  40715960.136 6        -1.787 5                        -1.342 6 212018742.33105                 163946341.84506        34.500                          38.000
C07  39494742.507 6  39494733.249 5  39494737.411 7      -488.475 6      -397.044 5      -377.823 7 205659518.85206 167115170.70405 159028976.26407        39.000          32.750          42.500
C10  38351160.179 7  38351153.226 5  38351157.682 7       242.162 7       196.916 5       187.248 7 199704586.68007 162276307.53105 154424257.09507        42.750          35.250          45.250
C12  26296118.079 6  26296111.662 5  26296115.707 6       570.293 6       463.801 5       441.020 6 136930784.56306 111267457.25805 105883566.83206        37.000          30.000          41.250
C19  23790160.401 7  23790154.370 6                      2529.074 7      2055.086 6                 123881644.48707 100663961.79406                        47.000          40.250
C20  22147125.517 8  22147115.464 7                      -340.037 8      -276.288 7                 115325925.02708  93711729.92507                        53.000          45.500
C23  23522201.615 8                                     -1973.503 8                                 122486309.23708                                        49.750
C32  24539352.747 7  24539352.298 6                     -3021.021 7     -2454.916 6                 127782880.88307 103834072.58406                        46.250          38.500
C34  27155130.965 6  27155130.669 5                      1607.531 6      1306.527 5                 141403892.79506 114902244.02605                        37.250          30.500
C37  22419288.005 8                                      1190.351 8                                 116743140.12708                                        52.750
E01  27631168.610 6  27631166.786 5  27631164.731 4  27631168.237 6  27631166.899 6     -2627.684 6     -1962.095 5     -2132.912 4     -2013.246 6     -1987.676 6 145202784.62406 108430668.00405 117859392.85504 111259295.59206 109844982.37306        37.750          32.500          27.250          41.500          41.500
E03  27040742.707 6  27040742.124 5                  27040742.756 7  27040741.892 7      2662.482 6      1988.377 5                      2040.167 7      2014.261 7 142100071.28806 106113701.73205                 108881890.03707 107497792.95807        39.250          34.250                          43.000          43.000
E05  23725981.640 8  23725980.604 7  23725975.550 6  23725981.299 8  23725980.232 8       755.411 8       564.063 7       613.124 6       578.835 8       571.470 8 124680915.12008  93105899.59507 101201999.23906  95534751.01808  94320302.37908        49.250          43.750          40.250          53.000          52.750
E09  22766834.452 7  22766833.144 6  22766829.836 6  22766833.793 8  22766832.853 8     -1858.624 7     -1387.871 6     -1508.526 6     -1424.118 8     -1406.004 8 119640566.19007  89342003.76806  97110807.44006  91672662.49308  90507332.20508        47.750          41.250          37.500          50.250          50.250
E13  27970957.396 5  27970955.673 5                  27970957.086 6  27970955.904 6      1353.241 5      1010.635 5                      1036.848 6      1023.659 6 146988374.91905 109764046.03905                 112627456.11606 111195748.65206        35.250          30.000                          40.250          40.000
E15  26896117.363 6  26896117.647 5  26896113.136 4  26896118.817 7  26896117.582 6     -1146.481 6      -856.031 5      -930.823 4      -878.335 7      -867.176 6 141340060.77106 105546151.75405 114724056.18304 108299533.74307 106922841.32206        37.750          32.250          29.250          42.000          41.750
E24  23622060.696 7  23622070.342 6  23622048.380 5  23622071.082 8  23622070.098 7      2555.012 7      1908.070 6      2073.659 5      1957.729 8      1932.851 7 124134773.34107  92698090.75006 100758694.49105  95116300.82008  93907197.86207        45.250          38.750          35.000          48.000          47.750
E31  24567140.313 7  24567139.562 6  24567134.120 6  24567140.286 8  24567139.321 8      -178.491 7      -133.277 6      -144.697 6      -136.820 8      -135.055 8 129101222.58907  96406759.80506 104789916.19506  98921727.38008  97664237.66708        47.750          41.500          37.500          50.500          50.250
G02  25865198.942 4                                                                     -3123.813 4                                                                                                                        24.250
G05  20953278.537 8  20953278.117 9  20953278.871 7  20953278.123 9                     -1056.333 8      -823.134 7      -823.115 9                 110110249.71608  85800194.64007  85800207.63109                        50.000          54.500          47.000          54.500
G07  21787743.843 8  21787743.280 8  21787743.479 7  21787743.241 8                     -1855.519 8     -1445.843 7     -1445.854 8                 114495412.73508  89217230.87007  89217217.86508                        49.000          51.500          44.500          51.500
G08  24974771.969 5  24974771.263 4  24974776.857 6  24974775.944 4  24974769.549 5      1944.480 5      1515.384 6      1515.181 4      1452.073 5 131243317.47805 102267538.06606 102267532.06604  98006364.60005        33.250          29.750          38.500          29.750          31.250
G09  24565255.771 6  24565255.226 5  24565258.724 6  24565258.580 5  24565252.999 5     -3468.471 6     -2702.625 6     -2702.701 5     -2590.187 5 129091318.66306 100590666.91006 100590668.90805  96399375.12405        38.500          35.000          39.000          35.000          33.500
G13  21681321.163 8  21681320.605 6                  21681320.127 6                      2491.660 8                      1941.552 6                 113936141.01208                  88781419.30606                        48.750          37.000                          37.000
G15  24030062.040 6  24030061.625 3  24030062.254 6  24030062.037 3                      3552.875 6      2768.412 6      2768.485 3                 126278839.15406  98399127.34806  98399113.35003                        39.250          23.000          36.500          23.000
G18  24133224.215 6  24133223.880 3  24133225.376 6  24133224.752 3  24133224.304 6      1178.322 6       918.175 6       918.171 3       879.779 6 126820962.96206  98821523.50806  98821525.49503  94703965.68906        39.250          21.750          38.500          21.750          36.750
G21  26281534.271 5  26281533.042 1                  26281533.802 1                      2008.951 5                      1565.459 1                 138110394.24005                 107618491.18401                        32.250           6.250                           6.250
G27  24752702.731 6  24752702.052 5  24752704.523 5  24752704.291 5  24752699.686 5       454.102 6       354.065 5       353.845 5       339.210 5 130076332.02106 101358192.47905 101358189.50905  97134913.64705        38.000          31.000          35.750          31.000          33.000
G28  23422210.742 6  23422209.799 3                  23422210.077 3                      3220.565 6                      2509.525 3                 123084554.81506                  95910043.18703                        40.750          23.000                          23.000
G30  20620894.948 8  20620894.005 9  20620897.408 8  20620896.805 9  20620892.138 7        73.791 8        57.453 8        57.500 9        55.114 7 108363570.63908  84439179.74908  84439171.75009  80920854.19707        51.500          57.250          50.000          57.250          46.500
R01  19310234.334 7  19310234.939 7  19310243.325 7  19310244.300 7                      -486.261 7      -486.182 7      -378.238 7      -378.194 7                 103224310.51507 103224306.51407  80285611.18507  80285618.18007                        46.500          46.000          45.000          44.250
R02  21932306.011 7  21932306.408 7  21932313.157 7  21932313.126 7                      3677.024 7      3677.083 7      2860.030 7      2859.925 7                 117035016.76707 117035011.77307  91027270.90607  91027276.91207                        46.500          45.500          43.750          44.250
R08  21386346.319 6  21386347.031 6  21386355.062 7  21386355.264 7                     -3321.184 6     -3321.294 6     -2583.119 7     -2583.157 7                 114522953.39506 114522952.42206  89073452.05407  89073464.05407                        41.750          41.250          44.250          44.250
R09  23106516.365 6  23106516.902 6  23106523.935 6  23106522.871 6  23106504.395 6     -4079.553 6     -4079.376 6     -3172.853 6     -3172.895 6     -3063.142 6 123387544.52306 123387529.51606  95968118.82106  95968123.82306  92644954.75506        40.750          40.000          39.750          40.000          38.750
R10  20306590.314 8  20306589.853 8                                                     -2226.809 8     -2226.785 8                                                 108245548.99108 108245567.98708                                                        50.000          49.750
R11  20141445.633 8  20141446.260 8  20141453.274 8  20141453.121 8                      2505.441 8      2505.469 8      1948.690 8      1948.688 8                 107629783.84608 107629794.85508  83712093.79408  83712094.79508                        50.000          50.000          48.250          48.250
R12  23691342.318 6  23691342.410 6  23691350.947 6  23691350.392 6                      4524.470 6      4524.335 6      3518.819 6      3519.028 6                 126554892.42306 126554893.42906  98431601.47306  98431621.46106                        39.750          39.500          37.750          38.250
R17  23492580.875 6  23492580.612 6  23492589.057 6  23492589.267 6                     -3127.384 6     -3127.217 6     -2432.409 6     -2432.332 6                 125713537.01006 125713552.02006  97777244.03006  97777238.02706                        37.250          37.000          39.250          38.500
R18  22841380.568 6  22841380.108 6  22841387.724 7  22841388.034 7                      -106.640 6      -106.748 6       -83.017 7       -83.063 7                 121928865.78106 121928861.78706  94833581.97007  94833587.95807                        41.000          40.250          42.000          42.250
R19                                  24117284.500 5                                                                      2310.015 5                                                                 100342055.94305                                                                        33.500
S23  39369556.833 6  39369530.529 5         3.848 6         2.589 5 206888873.00306 154494422.09805        40.500          32.250
S25  40361723.940 6                      -215.107 6                 212101767.26506                        38.250
S36  39057539.143 6  39057513.365 5         -.539 6         -.455 5 205250032.59606 153270650.30205        41.750          35.250
> 2020 06 25 00 01 00.0000000  0 43
C05  40715976.496 5                  40715972.930 6        -3.034 5                        -2.358 6 212018810.59905                 163946394.64106        34.500                          37.750
C07  39497571.750 6  39497562.167 5  39497566.698 7      -493.850 6      -401.554 5      -381.858 7 205674250.93506 167127141.75005 159040368.03907        39.000          32.750          42.250
C10  38349781.868 7  38349775.191 5  38349779.413 7       236.107 7       191.514 5       182.502 7 199697409.27507 162270475.32605 154418707.07907        42.500          35.500          45.250
C12  26292882.504 6  26292876.888 4  26292881.146 6       552.059 6       448.475 4       426.954 6 136913941.47506 111253770.89604 105870542.67806        36.000          29.750          40.750
C19  23775618.534 7  23775611.650 6                      2519.281 7      2047.056 6                 123805916.47307 100602426.59706                        47.250          40.250
C20  22149131.159 8  22149120.975 7                      -356.424 8      -289.646 7                 115336368.46308  93720216.07407                        53.500          45.750
C23  23533608.749 8                                     -1986.679 8                                 122545709.81608                                        49.500
C32  24556781.553 7  24556781.075 6                     -3029.556 7     -2461.890 6                 127873636.63007 103907819.04606                        46.000          38.750
C34  27145911.993 6  27145911.486 5                      1592.635 6      1294.064 5                 141355887.23406 114863235.57305                        37.000          30.750
C37  22412476.541 8                                      1174.060 8                                 116707671.43008                                        52.500
E01  27646192.922 6  27646192.331 5  27646189.397 4  27646192.543 6  27646191.564 6     -2636.202 6     -1968.379 5     -2140.180 4     -2019.915 6     -1994.201 6 145281739.11906 108489627.49405 117923479.28304 111319793.17706 109904710.91106        38.000          33.250          27.500          40.750          41.000
E03  27025553.361 6  27025552.715 5                  27025553.163 7  27025552.295 7      2658.652 6      1985.616 5                      2037.147 7      2011.297 7 142020249.81406 106054094.83405                 108820728.17807 107437408.58507        39.750          34.750                          42.750          43.000
E05  23721698.975 8  23721697.897 7  23721692.843 6  23721698.710 8  23721697.607 8       744.720 8       556.203 7       604.458 6       570.616 8       563.381 8 124658409.76508  93089093.64807 101183731.90806  95517506.66208  94303277.22908        49.500          44.000          40.500          53.000          52.750
E09  22777470.182 8  22777468.871 6  22777465.736 6  22777469.599 8  22777468.625 8     -1867.731 8     -1394.677 6     -1515.971 6     -1431.088 8     -1412.882 8 119696457.45008  89383740.73806  97156173.72906  91715488.25608  90549613.57108        48.000          41.500          37.500          50.250          50.250
E13  27963274.550 5  27963273.367 5                  27963274.629 6  27963273.446 6      1337.929 5       999.415 5                      1025.227 6      1012.198 6 146948003.53305 109733898.61605                 112596522.23406 111165208.00206        34.750          31.500                          40.250          40.250
E15  26902705.809 6  26902705.793 5  26902701.550 4  26902706.688 6  26902705.713 6     -1161.765 6      -867.441 5      -943.119 4      -890.301 6      -878.994 6 141374681.65106 105572005.02205 114752157.53404 108326061.43806 106949031.80506        38.250          32.500          29.750          41.500          41.500
E24  23607504.612 7  23607514.182 6  23607492.282 5  23607515.109 8  23607514.117 8      2544.256 7      1899.988 6      2065.161 5      1949.555 8      1924.777 8 124058281.04007  92640969.90006 100696606.57305  95057689.84708  93849331.94508        45.500          38.750          35.250          48.250          48.000
E31  24568204.755 8  24568204.040 6  24568198.728 6  24568204.818 8  24568203.889 8      -194.561 8      -145.460 6      -157.801 6      -149.093 8      -147.234 8 129106816.91108  96410937.40406 104794457.03206  98926013.94008  97668469.74208        48.000          41.500          37.500          50.500          50.250
G02  25883034.787 3                                                                     -3122.847 3                                                                                                                        21.000
G05  20959368.361 8  20959367.941 9  20959368.632 7  20959367.869 9                     -1077.284 8      -839.471 7      -839.441 9                 110142251.48508  85825131.07807  85825144.07309                        49.500          54.500          47.000          54.500
G07  21798373.920 8  21798373.353 8  21798373.628 7  21798373.232 8                     -1868.815 8     -1456.221 7     -1456.220 8                 114551274.18608  89260759.27307  89260746.26508                        48.750          51.750          44.500          51.750
G08  24963712.790 5  24963712.053 4  24963718.270 6  24963717.599 4  24963712.026 5      1928.651 5      1503.102 6      1502.841 4      1440.215 5 131185205.55005 102222256.14506 102222250.14404  97962969.40905        31.500          28.500          38.750          28.500          33.500
G09  24585069.144 6  24585068.603 5  24585072.098 6  24585072.415 5  24585067.392 5     -3473.150 6     -2706.440 6     -2706.350 5     -2593.798 5 129195442.02006 100671801.96706 100671803.95405  96477129.58205        37.250          33.750          38.500          33.750          34.000
G13  21667127.878 8  21667127.315 6                  21667127.094 6                      2480.414 8                      1932.790 6                 113861555.54508                  88723300.78006                        48.750          37.500                          37.500
G15  24009793.836 6  24009793.416 3  24009794.860 6  24009794.345 3                      3547.389 6      2764.070 6      2764.204 3                 126172332.09406  98316134.89406  98316120.87603                        39.250          23.500          36.750          23.500
G18  24126554.994 6  24126554.655 3  24126556.340 6  24126555.367 3  24126554.971 6      1157.853 6       902.365 6       902.213 3       864.779 6 126785914.92906  98794213.32806  98794215.35003  94677793.45006        39.250          22.000          38.250          22.000          36.750
G21  26270101.835 5  26270100.718 2                  26270100.493 2                      1996.375 5                      1555.650 2                 138050311.09705                 107571673.11002                        34.750          12.000                          12.000
G27  24750169.594 6  24750168.892 5  24750172.901 5  24750172.432 5  24750167.416 5       432.686 6       337.125 5       337.151 5       322.927 5 130063025.76406 101347824.01305 101347820.99305  97124977.20905        36.750          30.250          35.750          30.250          33.000
G28  23403849.930 6  23403848.969 3                  23403849.536 3                      3211.545 6                      2502.492 3                 122988071.92606                  95834861.70603                        40.750          23.000                          23.000
G30  20620525.155 8  20620524.212 9  20620527.498 8  20620527.042 9  20620522.355 7        55.554 8        43.328 8        43.289 9        41.559 7 108361627.56808  84437665.67408  84437657.67409  80919403.20607        51.500          57.500          50.000          57.500          46.750
R01  19313027.815 7  19313028.156 7  19313036.324 7  19313037.092 7                      -509.305 7      -509.267 7      -396.173 7      -396.207 7                 103239240.99807 103239236.99007  80297223.77807  80297230.77207                        46.750          46.250          44.750          44.250
R02  21911657.084 7  21911657.184 7  21911663.373 7  21911663.768 7                      3668.557 7      3668.550 7      2853.359 7      2853.301 7                 116924828.75507 116924823.76607  90941569.16007  90941575.16007                        46.250          46.000          43.500          44.000
R08  21404991.805 7  21404993.035 6  21405000.763 7  21405001.049 7                     -3335.403 7     -3335.417 6     -2594.193 7     -2594.333 7                 114622800.56707 114622799.57706  89151110.95907  89151122.96307                        42.000          41.500          44.250          44.250
R09  23129460.508 6  23129460.010 6  23129466.210 6  23129466.082 6  23129446.946 6     -4088.225 6     -4088.083 6     -3179.642 6     -3179.877 6     -3069.595 6 123510055.66006 123510040.66106  96063405.23706  96063410.26506  92736942.83306        41.250          40.250          40.750          40.500          38.250
R10  20319185.716 8  20319185.340 8                                                     -2249.444 8     -2249.513 8                                                 108312689.93508 108312708.93508                                                        50.000          49.750
R11  20127443.080 8  20127443.513 8  20127450.411 8  20127450.516 8                      2482.751 8      2482.725 8      1931.032 8      1930.915 8                 107554958.38008 107554969.38208  83653896.21308  83653897.22008                        50.000          50.250          48.250          48.500
R12  23665946.807 6  23665947.623 6  23665955.935 6  23665955.940 6                      4518.967 6      4518.927 6      3514.544 6      3514.759 6                 126419238.61606 126419239.61106  98326092.97106  98326112.96006                        40.250          39.250          40.250          40.250
R17  23510161.090 6  23510161.870 6  23510170.199 6  23510170.166 6                     -3145.003 6     -3144.828 6     -2446.194 6     -2446.069 6                 125807618.05506 125807633.04606  97850418.16906  97850412.16606                        37.500          36.750          38.500          38.250
R18  22842060.558 6  22842061.158 6  22842067.542 7  22842068.096 7                      -135.512 6      -135.475 6      -105.341 7      -105.513 7                 121932496.30706 121932492.31306  94836405.71707  94836411.72007                        41.250          40.500          42.000          42.250
R19                                  24100682.988 5                                                                      2294.697 5                                                                 100272981.35705                                                                        34.250
S23  39369539.398 6  39369511.967 5         2.469 6         1.890 5 206888775.12406 154494349.33505        40.750          32.250
S25  40362979.398 6                      -216.616 6                 212108243.25506                        38.250
S36  39057544.446 6  39057518.892 5        -1.634 6        -1.371 5 205250062.39406 153270673.06605        41.500          35.000
> 2020 06 25 00 01 30.0000000  0 42
C05  40715989.111 5                  40715985.361 6        -2.065 5                        -1.617 6                                 163946443.48606        34.500                          37.750
C07  39500423.746 6  39500415.054 5  39500418.811 7      -497.222 6      -403.939 5      -384.549 7 205689102.64706 167139209.95205 159051852.33207        38.500          33.000          42.250
C10  38348430.352 7  38348424.018 5  38348428.260 7       232.006 7       188.445 5       179.320 7 199690373.35007 162264758.05505 154413266.45607        42.500          35.750          45.500
C12  26289746.089 6  26289740.073 5  26289744.473 6       535.818 6       435.543 5       414.325 6 136897605.99406 111240497.02105 105857911.08306        36.500          30.250          41.500
C19  23761124.140 7  23761117.767 6                      2511.250 7      2040.559 6                 123730443.41507 100541098.56106                        47.250          40.250
C20  22151223.218 8  22151213.106 7                      -370.838 8      -301.391 7                 115347262.58408  93729068.44207                        53.500          45.500
C23  23545083.673 8                                     -1997.828 8                                 122605462.70808                                        49.500
C32  24574251.247 7  24574251.048 6                     -3036.129 7     -2467.136 6                 127964606.35307 103981739.38506                        45.750          38.500
C34  27136771.445 6  27136771.526 5                      1579.453 6      1283.308 5                 141308290.95806 114824559.72605                        38.500          31.250
C37  22405750.932 8                                      1159.747 8                                 116672649.15508                                        52.500
E01  27661258.503 6  27661257.497 5                  27661257.818 6  27661257.024 6     -2642.620 6     -1973.272 5                     -2024.852 6     -1999.081 6 145360907.68606 108548746.85105                 111380454.78906 109964601.39406        38.250          32.250                          41.250          41.000
E03  27010377.430 6  27010376.711 5                  27010377.358 7  27010376.310 7      2656.816 6      1984.011 5                      2035.701 7      2009.802 7 141940500.11306 105994541.53505                 108759621.27807 107377078.48007        40.250          34.750                          43.250          43.250
E05  23717469.331 8  23717468.180 7  23717463.275 6  23717469.012 8  23717467.922 8       736.021 8       549.587 7       597.471 6       563.992 8       556.824 8 124636182.67108  93072495.50007 101165690.43506  95500475.51308  94286462.57908        49.750          43.750          40.250          53.250          53.000
E09  22788149.916 8  22788148.659 6  22788145.250 6  22788149.399 8  22788148.380 8     -1874.807 8     -1399.997 6     -1521.822 6     -1436.553 8     -1418.268 8 119752579.85708  89425650.32806  97201727.64706  91758491.13808  90592069.80508        48.250          41.250          37.250          50.500          50.250
E13  27955670.294 5  27955669.386 5                  27955670.182 6  27955668.973 6      1324.798 5       989.317 5                      1015.258 6      1002.309 6 146908041.21705 109704056.64205                 112565901.78406 111134976.78806        35.500          31.750                          40.500          40.500
E15  26909374.208 6  26909374.364 5  26909369.683 4  26909375.165 6  26909374.043 6     -1175.100 6      -878.090 5      -953.740 4      -900.583 6      -889.189 6 141409724.23706 105598173.22505 114780601.20004 108352912.27206 106975541.31806        39.000          32.000          29.000          41.750          41.250
E24  23593001.901 7  23593011.562 6  23592989.741 5  23593012.565 8  23593011.433 8      2535.415 7      1893.203 6      2058.132 5      1942.831 8      1918.091 8 123982068.74507  92584058.14406 100634745.96805  94999293.42808  93791677.85408        45.500          38.750          35.500          48.500          48.250
E31  24569353.107 8  24569352.356 6  24569347.028 6  24569353.146 8  24569352.157 8      -208.652 8      -155.876 6      -169.264 6      -159.899 8      -157.878 8 129112851.21008  96415443.54106 104799355.01806  98930637.63808  97673034.66108        48.000          41.250          37.500          50.500          50.250
G05  20965569.284 8  20965568.864 9  20965569.440 7  20965568.619 9                     -1096.085 8      -854.069 7      -854.091 9                 110174836.96508  85850522.36307  85850535.35609                        49.250          54.250          47.000          54.250
G07  21809071.593 8  21809071.026 8  21809071.122 7  21809070.802 8                     -1879.991 8     -1464.919 7     -1464.927 8                 114607490.61708  89304564.27607  89304551.27408                        49.000          51.750          44.250          51.750
G08  24952738.364 5  24952737.649 5  24952743.216 6  24952742.319 5  24952736.667 5      1915.181 5      1492.305 6      1492.347 5      1430.126 5 131127529.48005 102177313.82706 102177307.82505  97919899.68605        35.250          30.250          37.750          30.250          34.500
G09  24604900.425 6  24604899.911 5  24604903.698 6  24604903.905 5  24604900.122 5     -3475.599 6     -2708.176 6     -2708.264 5     -2595.703 5 129299660.85506 100753011.39706 100753013.40705  96554955.29505        37.750          32.000          36.500          32.000          34.750
G13  21652990.830 8  21652990.272 6                  21652990.198 6                      2471.102 8                      1925.535 6                 113787265.87208                  88665412.74606                        48.500          37.500                          37.500
G15  23989549.580 6  23989549.165 3  23989550.760 6  23989550.469 3                      3543.772 6      2761.126 6      2761.371 3                 126065949.68906  98233239.56806  98233225.55203                        39.500          23.750          36.750          23.750
G18  24119993.212 6  24119992.895 3  24119994.553 6  24119993.748 3  24119993.701 6      1139.658 6       887.921 6       888.056 3       851.002 6 126751434.65006  98767345.61606  98767347.61803  94652045.22906        39.250          22.250          37.500          22.250          36.250
G21  26258729.780 4  26258728.506 1                  26258730.481 1                      1985.849 4                      1547.453 1                 137990561.43504                 107525114.96801                        29.000           7.250                           7.250
G27  24747752.054 6  24747751.339 5  24747754.982 5  24747754.863 5  24747750.063 5       413.216 6       322.064 5       321.983 5       308.719 5 130050321.31906 101337924.42205 101337921.43405  97115490.10205        37.500          30.250          35.000          30.250          33.500
G28  23385533.478 6  23385532.517 3                  23385532.639 3                      3204.459 6                      2496.991 3                 122891816.33806                  95759857.36203                        41.000          23.250                          23.250
G30  20620251.013 8  20620250.070 9  20620253.330 8  20620252.847 9  20620248.221 7        39.451 8        30.785 8        30.740 9        29.388 7 108360186.89708  84436543.08108  84436535.07809  80918327.39107        51.500          57.500          50.000          57.500          46.500
R01  19315942.670 7  19315942.478 7  19315950.760 7  19315951.607 7                      -530.311 7      -530.376 7      -412.433 7      -412.386 7                 103254819.43407 103254815.42907  80309340.32607  80309347.33007                        46.750          46.250          45.000          44.500
R02  21891047.073 7  21891047.288 7  21891054.680 7  21891054.426 7                      3662.067 7      3661.993 7      2848.205 7      2848.226 7                 116814852.42807 116814847.44407  90856032.05807  90856038.06607                        46.250          45.500          44.250          44.250
R08  21423710.568 6  21423710.049 6  21423717.735 7  21423718.031 7                     -3347.578 6     -3347.608 6     -2603.611 7     -2603.525 7                 114723029.21006 114723028.24106  89229066.56707  89229078.56307                        41.750          41.250          44.500          44.250
R09  23152441.935 6  23152442.326 6  23152449.440 7  23152450.240 6  23152430.221 6     -4094.971 6     -4094.914 6     -3184.951 7     -3184.798 6     -3074.688 6 123632787.63606 123632772.63606  96158863.40307  96158868.40306  92829096.71806        39.000          38.000          42.000          40.750          37.750
R10  20331900.483 8  20331900.050 8                                                     -2270.006 8     -2270.027 8                                                 108380466.76408 108380485.76708                                                        49.750          49.750
R11  20113560.320 8  20113560.918 8  20113567.724 8  20113567.868 8                      2461.901 8      2461.922 8      1914.812 8      1914.872 8                 107480772.64508 107480783.65308  83596196.21808  83596197.21308                        50.250          50.250          48.500          48.750
R12  23640575.847 6  23640575.883 6  23640584.535 6  23640584.244 6                      4515.479 6      4515.451 6      3512.120 6      3511.945 6                 126283707.71306 126283708.71806  98220680.08106  98220700.10606                        40.000          39.250          40.500          40.750
R17  23527831.817 6  23527832.877 6  23527842.219 6  23527841.902 6                     -3160.385 6     -3160.379 6     -2458.110 6     -2458.110 6                 125902182.70906 125902197.71506  97923968.45606  97923962.47006                        36.750          36.250          38.500          38.500
R18  22842893.903 6  22842893.873 6  22842902.158 7  22842902.179 7                      -162.194 6      -162.144 6      -126.129 7      -125.986 7                 121936945.24606 121936941.24506  94839866.03707  94839872.03507                        40.750          39.750          43.000          42.750
R19                                  24084182.677 5                                                                      2281.001 5                                                                 100204330.33405                                                                        35.500
S23  39369519.509 6  39369492.578 5         3.228 6         2.771 5 206888674.54906 154494274.40405        40.750          32.000
S25  40364231.099 6                      -215.257 6                 212114698.32406                        38.250
S36  39057547.352 6  39057524.026 5         -.760 6         -.844 5 205250085.38006 153270699.20105        41.500          35.250
> 2020 06 25 00 02 00.0000000  0 42
C05  40716000.106 5                  40715996.701 6        -2.299 5                        -1.865 6 212018933.96205                 163946490.01706        34.250                          37.500
C07  39503299.633 6  39503290.002 5  39503294.038 7      -501.312 6      -407.391 5      -387.688 7 205704075.74806 167151376.84805 159063430.49807        38.500          33.250          42.000
C10  38347107.141 7  38347099.994 6  38347104.369 7       226.987 7       184.421 6       175.601 7 199683480.95507 162259157.42306 154407936.81607        42.500          36.000          45.000
C12  26286707.090 6  26286701.531 5  26286704.694 6       518.865 6       421.926 5       401.141 6 136881780.83006 111227637.81105 105845674.13606        36.500          31.250          41.250
C19  23746680.477 7  23746673.580 6                      2502.531 7      2033.461 6                 123655229.24207 100479980.91506                        47.250          40.500
C20  22153402.095 8  22153392.196 7                      -386.060 8      -313.662 7                 115358609.74808  93738288.94307                        53.750          45.750
C23  23556626.387 8                                     -2009.702 8                                 122665568.35008                                        49.250
C32  24591762.413 7  24591762.146 6                     -3043.351 7     -2473.011 6                 128055790.89507 104055834.27906                        45.750          39.000
C34  27127711.534 6  27127710.330 5                      1565.501 6      1272.141 5                 141261107.71806 114786219.46405                        39.000          31.500
C37  22399111.435 8                                      1144.650 8                                 116638075.93708                                        52.250
E01  27676365.168 6  27676363.634 5  27676359.902 4  27676363.898 6  27676363.109 6     -2650.043 6     -1979.049 5     -2151.484 4     -2030.378 6     -2004.654 6 145440290.79506 108608026.44905 118052173.80904 111441280.79606 110024654.19106        39.750          32.250          28.250          41.250          41.250
E03  26995215.170 6  26995214.771 5                  26995215.976 7  26995214.621 7      2654.280 6      1982.235 5                      2033.763 7      2007.935 7 141860825.14206 105935044.00005                 108698571.65907 107316804.91107        40.250          34.250                          43.750          43.500
E05  23713293.150 8  23713292.035 7  23713287.068 6  23713292.834 8  23713291.744 8       726.483 8       542.648 7       589.697 6       556.687 8       549.631 8 124614236.70308  93056107.28007 101147877.15306  95483659.77408  94269860.60108        49.750          43.750          40.500          53.000          53.000
E09  22798874.048 8  22798872.769 6  22798869.270 6  22798873.479 8  22798872.435 8     -1882.685 8     -1406.038 6     -1528.146 6     -1442.603 8     -1424.291 8 119808935.24708  89467733.90406  97247470.64206  91801672.53608  90634702.29208        48.000          41.250          37.750          50.500          50.250
E13  27948143.890 5  27948143.178 5                  27948143.312 6  27948142.803 6      1311.158 5       979.423 5                      1004.672 6       991.944 6 146868491.29305 109674522.63205                 112535597.30306 111105057.53806        35.500          30.750                          39.000          39.250
E15  26916123.181 6  26916123.260 5  26916118.491 4  26916124.130 6  26916122.893 6     -1189.473 6      -888.142 5      -965.621 4      -911.547 6      -899.913 6 141445189.63006 105624657.09805 114809388.03304 108380087.05906 107002370.65506        38.750          32.250          29.500          41.750          41.500
E24  23578553.240 7  23578562.924 6  23578541.256 5  23578563.642 8  23578562.726 8      2525.853 7      1886.343 6      2050.342 5      1935.419 8      1910.846 8 123906140.07807  92527358.17806 100573115.56005  94941114.34108  93734238.33108        45.500          39.000          35.500          48.500          48.250
E31  24570585.451 8  24570584.735 6  24570579.346 6  24570585.459 8  24570584.487 8      -223.569 8      -166.781 6      -181.535 6      -171.247 8      -169.050 8 129119327.23008  96420279.53206 104804611.54306  98935599.79108  97677933.73608        48.000          41.500          37.750          50.250          50.250
G05  20971881.261 8  20971880.837 8  20971881.383 7  20971880.525 8                     -1115.676 8      -869.340 7      -869.357 8                 110208006.59408  85876368.82407  85876381.82008                        49.250          53.750          46.750          53.750
G07  21819836.821 8  21819836.254 8  21819836.586 7  21819836.036 8                     -1891.942 8     -1474.237 7     -1474.239 8                 114664062.62908  89348646.36107  89348633.35808                        48.750          51.250          44.250          51.250
G08  24941846.922 6  24941846.189 5  24941851.422 5  24941850.439 5  24941844.719 5      1900.168 6      1480.649 5      1480.654 5      1418.957 5 131070293.52306 102132714.39205 102132708.39805  97877158.58505        36.750          30.250          35.500          30.250          34.750
G09  24624752.291 6  24624751.755 5  24624754.727 5  24624753.742 5  24624750.745 5     -3479.008 6     -2710.907 5     -2710.914 5     -2598.105 5 129403976.19506 100834296.09305 100834298.10505  96632853.06805        38.250          31.500          35.500          31.500          34.500
G13  21638910.930 8  21638910.376 6                  21638910.186 6                      2461.060 8                      1917.710 6                 113713275.27808                  88607757.75606                        48.750          37.500                          37.500
G15  23969330.833 6  23969330.386 3  23969331.080 6  23969330.548 3                      3539.391 6      2758.055 6      2757.956 3                 125959695.97106  98150444.49206  98150430.48503                        39.750          23.500          36.500          23.500
G18  24113540.827 6  24113540.523 3  24113541.828 6  24113540.544 3  24113541.146 6      1120.465 6       873.192 6       873.081 3       836.664 6 126717525.54106  98740922.93106  98740924.92603  94626723.50906        39.500          21.500          36.750          21.500          36.250
G21  26247425.070 6  26247424.704 2                  26247425.758 2                      1974.381 6                      1538.475 2                 137931153.55406                 107478821.01802                        38.000          15.500                          15.500
G27  24745450.027 6  24745449.334 5  24745452.742 5  24745452.281 5  24745447.899 5       392.977 6       305.951 5       306.219 5       293.593 5 130038221.56706 101328496.06205 101328493.04805  97106454.55405        37.250          30.250          35.000          30.250          33.750
G28  23367260.431 6  23367259.479 3                  23367260.091 3                      3196.638 6                      2490.883 3                 122795792.99506                  95685033.99203                        40.250          22.750                          22.750
G30  20620072.818 8  20620071.875 9  20620075.074 8  20620074.594 9  20620069.970 7        22.570 8        17.572 8        17.589 9        16.880 7 108359250.40808  84435813.36008  84435805.35409  80917628.07207        51.250          57.250          49.750          57.250          46.500
R01  19318978.853 7  19318978.437 7  19318986.470 7  19318987.566 7                      -552.071 7      -552.091 7      -429.366 7      -429.408 7                 103271048.26907 103271044.27707  80321962.75607  80321969.76307                        46.750          45.750          45.000          44.500
R02  21870478.531 7  21870478.736 7  21870485.265 7  21870485.209 7                      3654.731 7      3654.743 7      2842.498 7      2842.654 7                 116705093.36307 116705088.35907  90770663.92707  90770669.90907                        46.500          45.750          44.000          44.250
R08  21442497.956 6  21442498.112 6  21442506.166 7  21442506.475 7                     -3360.257 6     -3360.308 6     -2613.542 7     -2613.537 7                 114823639.73106 114823638.75106  89307319.18907  89307331.18407                        41.250          41.000          44.500          44.750
R09  23175468.671 7  23175469.121 6  23175473.867 6  23175474.839 6  23175455.661 6     -4102.394 7     -4102.515 6     -3190.652 6     -3190.758 6     -3080.136 6 123755739.37707 123755724.37006  96254492.47906  96254497.46306  92921415.57306        42.500          41.000          41.500          40.000          39.000
R10  20344733.982 8  20344733.817 8                                                     -2291.242 8     -2291.242 8                                                 108448878.44108 108448897.44408                                                        49.750          49.750
R11  20099798.162 8  20099798.520 8  20099805.520 8  20099805.511 8                      2440.332 8      2440.335 8      1898.028 8      1898.017 8                 107407230.87408 107407241.87908  83538997.06908  83538998.07008                        50.250          50.250          48.500          48.750
R12  23615228.379 6  23615228.070 6  23615236.560 6  23615236.713 6                      4510.787 6      4510.918 6      3508.550 6      3508.477 6                 126148305.20706 126148306.21806  98115367.04906  98115387.06706                        38.750          38.250          40.000          40.000
R17  23545596.068 5  23545594.712 5  23545603.728 6  23545603.621 6                     -3176.601 5     -3176.549 5     -2470.598 6     -2470.683 6                 125997228.99705 125997243.99505  97997893.33106  97997887.33106                        35.750          35.500          38.750          38.500
R18  22843880.812 6  22843881.011 6  22843889.717 7  22843889.210 7                      -189.629 6      -189.630 6      -147.583 7      -147.443 7                 121942214.95506 121942210.94706  94843964.71307  94843970.70807                        41.250          40.000          43.000          43.000
R19                                  24067786.410 6                                                                      2266.604 6                                                                 100136107.67706                                                                        36.000
S23  39369499.207 6  39369473.412 5         3.278 6         2.415 5 206888572.57706 154494197.96605        41.000          32.000
S25  40365486.994 6                      -215.654 6                 212121153.77806                        38.250
S36  39057554.391 6  39057529.669 5        -1.277 6         -.711 5 205250110.41506 153270720.53205        41.500          35.000
> 2020 06 25 00 02 30.0000000  0 42
C05  40716010.006 5                  40716007.401 6        -1.477 5                         -.931 6 212018988.71405                 163946532.39906        34.250                          38.000
C07  39506197.291 6  39506188.280 5  39506192.140 7      -504.801 6      -410.297 5      -390.120 7 205719167.53906 167163640.15105 159075100.40507        38.000          33.250          42.250
