     3.04           OBSERVATION DATA    M: MIXED            RINEX VERSION / TYPE
Spider V7.11.1.104                      20260501 000545 UTC PGM / RUN BY / DATE
SNR is mapped to RINEX snr flag value [1-9]                 COMMENT
LX:     < 12dBHz -> 1; 12-17dBHz -> 2; 18-23dBHz -> 3       COMMENT
       24-29dBHz -> 4; 30-35dBHz -> 5; 36-41dBHz -> 6       COMMENT
       42-47dBHz -> 7; 48-53dBHz -> 8; >= 54dBHz -> 9       COMMENT
Product                                                     COMMENT
PASA00ESP                                                   MARKER NAME
19351S001                                                   MARKER NUMBER
GEODETIC                                                    MARKER TYPE
JZurutuza           ARA-Geolab Pasaia                       OBSERVER / AGENCY
1700316             LEICA GR30          4.83/7.900          REC # / TYPE / VERS
16073034            LEIAR20         LEIM                    ANT # / TYPE
  4644909.4225  -156645.6161  4353622.6592                  APPROX POSITION XYZ
        0.0000        0.0000        0.0000                  ANTENNA: DELTA H/E/N
G   20 C1C L1C D1C S1C C1L L1L D1L S1L C2S L2S D2S S2S C2W  SYS / # / OBS TYPES
       L2W D2W S2W C5Q L5Q D5Q S5Q                          SYS / # / OBS TYPES
R   12 C1C L1C D1C S1C C2P L2P D2P S2P C2C L2C D2C S2C      SYS / # / OBS TYPES
E   20 C1C L1C D1C S1C C5Q L5Q D5Q S5Q C6C L6C D6C S6C C7Q  SYS / # / OBS TYPES
       L7Q D7Q S7Q C8Q L8Q D8Q S8Q                          SYS / # / OBS TYPES
C   24 C1P L1P D1P S1P C2I L2I D2I S2I C5P L5P D5P S5P C6I  SYS / # / OBS TYPES
       L6I D6I S6I C7D L7D D7D S7D C7I L7I D7I S7I          SYS / # / OBS TYPES
S    4 C1C L1C D1C S1C                                      SYS / # / OBS TYPES
DBHZ                                                        SIGNAL STRENGTH UNIT
    30.000                                                  INTERVAL
  2026    04    30    10    00    0.0000000     GPS         TIME OF FIRST OBS
  2026    04    30    11    59   30.0000000     GPS         TIME OF LAST OBS
     0                                                      RCV CLOCK OFFS APPL
G L1C                                                       SYS / PHASE SHIFT
G L1L  0.25000                                              SYS / PHASE SHIFT
G L2S -0.25000                                              SYS / PHASE SHIFT
G L2W                                                       SYS / PHASE SHIFT
G L5Q -0.25000                                              SYS / PHASE SHIFT
R L1C                                                       SYS / PHASE SHIFT
R L2P  0.25000                                              SYS / PHASE SHIFT
R L2C                                                       SYS / PHASE SHIFT
E L1C  0.50000                                              SYS / PHASE SHIFT
E L5Q -0.25000                                              SYS / PHASE SHIFT
E L6C -0.50000                                              SYS / PHASE SHIFT
E L7Q -0.25000                                              SYS / PHASE SHIFT
E L8Q -0.25000                                              SYS / PHASE SHIFT
C L1P  0.25000                                              SYS / PHASE SHIFT
C L2I                                                       SYS / PHASE SHIFT
C L5P  0.25000                                              SYS / PHASE SHIFT
C L6I                                                       SYS / PHASE SHIFT
C L7D                                                       SYS / PHASE SHIFT
C L7I                                                       SYS / PHASE SHIFT
S L1C                                                       SYS / PHASE SHIFT
 24 R01  1 R02 -4 R03  5 R04  6 R05  1 R06 -4 R07  5 R08  6 GLONASS SLOT / FRQ #
    R09 -2 R10 -7 R11  0 R12 -1 R13 -2 R14 -7 R15  0 R16 -1 GLONASS SLOT / FRQ #
    R17  4 R18 -3 R19  3 R20  2 R21  4 R22 -3 R23  3 R24  2 GLONASS SLOT / FRQ #
 C1C  -71.940 C1P  -71.940 C2C  -71.940 C2P  -71.940        GLONASS COD/PHS/BIS
    18    18  1929     7                                    LEAP SECONDS
                                                            END OF HEADER
> 2026 04 30 10 00  0.0000000  0 36
G02  24507086.760   128785605.83306      3437.766          37.600                                                                                                                                    24507089.520   100352441.30405      2678.783          34.550
G07  25189543.480   132371946.89706      1911.861          38.750                                                                    25189545.340   103146978.09806      1489.759          37.300    25189545.020   103146976.08806      1489.760          39.000
G08  22723947.220   119415166.67807      2763.558          43.950                                                                    22723951.520    93050811.60507      2153.422          43.550    22723950.880    93050808.60007      2153.423          44.350    22723951.020    89173704.20208      2063.692          49.850
G10  23174018.140   121780347.83707      2885.354          46.000                                                                    23174023.460    94893826.89807      2248.331          45.550    23174023.680    94893818.89507      2248.331          46.400    23174023.180    90939920.62208      2154.706          50.400
G16  20043288.260   105328213.58608      -411.023          51.700                                                                                                                                    20043287.440    82073942.96108      -320.278          51.850
G18  22271284.440   117036415.64407     -2617.833          47.900    22271284.180   117036404.64807     -2617.873          47.900    22271285.940    91197226.31808     -2039.872          49.950    22271285.740    91197221.31707     -2039.872          47.250    22271290.900    87397361.25008     -1954.826          53.150
G23  21942922.260   115310912.36708      1166.645          48.550    21942922.120   115310916.35808      1166.703          48.600    21942924.120    89852696.96808       909.074          49.850    21942923.960    89852688.96907       909.075          46.100    21942929.200    86108884.66708       871.233          52.950
G26  21436181.840   112647890.42508     -2487.457          51.200                                                                    21436185.780    87777590.79508     -1938.280          50.800    21436185.680    87777589.79008     -1938.281          51.350    21436185.360    84120205.81709     -1857.527          55.800
G27  20634300.480   108434023.15808      1444.838          52.700                                                                    20634302.740    84494077.26308      1125.850          52.250    20634302.380    84494075.26108      1125.849          52.600    20634302.940    80973513.43309      1078.950          56.850
R07  23490515.100   125746607.33506      1007.643          39.750    23490519.200    97802926.16206       783.723          39.350    23490519.440    97802917.17006       783.724          39.050
R08  24147525.200   129308920.95505      3271.237          35.800    24147533.020   100573639.09806      2544.296          36.350    24147532.920   100573639.08405      2544.294          35.900
R13  20589147.500   109945023.95307     -3309.109          44.950
R14  19687503.060   104945503.66908      1228.868          52.900    19687507.040    81624301.55308       955.786          50.600    19687507.120    81624313.55708       955.786          51.450
R15  23206707.820   124009606.23906      4072.305          41.150    23206712.080    96451935.13506      3167.349          41.750    23206712.360    96451939.13106      3167.348          41.550
R17  23606599.640   126323728.54906      3469.022          41.550    23606604.780    98251770.35006      2698.133          41.300    23606604.980    98251777.36506      2698.135          41.950
R23  20918475.320   111899750.22308     -2908.600          48.550
R24  19876585.000   106289092.79708      1280.253          53.400    19876587.220    82669334.68108       995.753          49.800    19876587.180    82669326.68908       995.753          50.250
E02  25392049.740   133436134.65048      2235.216          48.550    25392055.240    99643901.18708      1669.071          50.700    25392052.060   108308570.81808      1814.197          49.100    25392052.340   102243293.94308      1712.609          49.900    25392053.080   100943585.86508      1690.815          53.750
E10  24381799.620   128127261.78548     -1470.463          53.900    24381804.640    95679493.53509     -1098.028          54.650    24381802.520   103999423.42009     -1193.544          55.300    24381802.040    98175467.11609     -1126.712          54.550    24381802.520    96927475.12709     -1112.377          58.100
E11  21829631.000   114715529.45648        62.792          51.500    21829632.700    85664228.07008        46.816          53.000    21829628.880    93113266.01608        50.895          53.600    21829629.780    87898930.71408        48.067          52.400    21829630.660    86781573.69009        47.457          56.250
E12  25839552.980   135787775.93247     -2426.947          42.800    25839556.740   101399985.98207     -1812.268          45.750    25839552.620   110217357.69607     -1969.850          45.750    25839553.760   104045190.84607     -1859.601          44.500    25839554.700   102722585.21408     -1835.959          48.700
E16  25455536.020   133769738.50648     -2328.004          48.700    25455542.740    99893015.77508     -1738.467          50.050    25455537.920   108579344.13408     -1889.629          49.450    25455540.380   102498908.80308     -1783.809          50.150    25455540.660   101195949.09008     -1761.152          53.600
E25  23241346.360   122134114.90249      -211.097          55.000    23241351.680    91204091.00009      -157.672          55.600    23241346.720    99134853.12009      -171.361          57.100    23241348.960    93583313.49009      -161.800          55.850    23241349.780    92393686.04309      -159.726          59.200
E36  25335185.860   133137349.33848      2465.008          49.050    25335194.640    99420803.19808      1840.757          50.850    25335188.800   108066061.34508      2000.812          50.700    25335191.360   102014374.06808      1888.788          50.000    25335192.340   100717589.43109      1864.779          54.000
C06  39894236.780   209645634.87006      -615.109          37.900    39894236.380   207739775.06906      -609.462          39.750    39894242.140   156553588.70407      -459.178          43.650    39894238.820   168805592.08506      -494.949          40.600    39894238.500   160637576.46806      -471.008          39.700
C09                                                                  38866464.720   202387926.77407       178.596          44.100                                                                    38866468.300   164456821.25806       145.121          41.550                                                                    38866470.320   156499246.91607       138.184          44.200
C19  26122997.260   137277303.15706       808.908          36.650    26122999.120   136029338.46306       801.117          38.700    26123004.840   102512328.42407       603.857          43.300    26122999.760   110535009.41006       651.157          39.950    26123001.980   105186515.45106       619.731          40.350
C22  25906234.120   136138192.86806      2671.537          37.500    25906234.220   134900582.62906      2647.661          40.200    25906240.920   101661694.70807      1995.281          42.200    25906235.300   109617790.74006      2151.521          37.600    25906238.300   104313706.42606      2047.284          40.700
C24  22617852.620   118857615.00108     -1818.361          51.350    22617852.520   117777085.74208     -1801.850          52.600    22617853.800    88757309.38409     -1357.874          55.100    22617852.700    95703531.09908     -1464.161          51.150    22617850.860    91072707.15408     -1393.296          50.750
C25  23383535.140   122881319.33807      1578.677          45.550    23383535.480   121764220.11107      1564.411          47.550    23383538.060    91762047.34208      1179.014          49.750    23383536.560    98943411.99407      1271.210          45.900    23383535.280    94155827.89307      1209.769          46.200
C26  25426959.340   133619501.14106     -3436.675          40.600    25426959.860   132404796.24307     -3405.069          42.350    25426968.180    99780825.12807     -2566.031          44.700    25426965.260   107589756.07507     -2766.847          42.050    25426965.560   102383773.34506     -2633.091          41.600
C31  21500802.280   112987415.62108      -824.541          52.350    21500803.480   111960362.24409      -817.129          54.250    21500806.700    84373828.50809      -615.791          56.000    21500804.520    90976977.92608      -663.947          52.900    21500804.280    86574867.33108      -631.818          52.750
C34  22678376.100   119175726.05808      1852.932          48.550    22678376.200   118092317.42208      1835.948          49.800    22678380.900    88994921.12708      1383.597          51.650    22678378.380    95959715.53907      1491.831          47.000    22678378.360    91316509.13808      1419.675          48.850
C35  24713758.300   129871709.44606     -2622.987          41.900    24713758.800   128691007.38007     -2599.020          44.800    24713764.980    96982086.74607     -1958.634          45.800    24713761.900   104571987.94007     -2111.819          43.350    24713762.260    99512051.65307     -2009.789          42.650
S21  37764088.100                           5.695          46.300
S36  37791811.560   198597298.89207         1.321          47.850
> 2026 04 30 10 00 30.0000000  0 36
G02  24487475.900   128682551.58106      3432.136          36.000                                                                                                                                    24487478.940   100272139.35305      2674.398          33.800
G07  25178666.080   132314786.89106      1898.685          39.050                                                                    25178668.100   103102437.78506      1479.494          39.550    25178667.880   103102435.78606      1479.495          39.800
G08  22708182.700   119332323.44507      2759.134          43.300                                                                    22708186.900    92986258.47607      2149.979          44.250    22708186.240    92986255.46207      2149.976          43.250    22708186.460    89111840.80008      2060.312          50.250
G10  23157570.120   121693912.89007      2876.562          46.000                                                                    23157575.380    94826475.08407      2241.480          45.800    23157575.620    94826467.07607      2241.480          46.100    23157575.140    90875375.13908      2148.110          50.900
G16  20045685.060   105340808.84208      -428.942          51.450                                                                                                                                    20045684.260    82083757.42908      -334.241          51.550
G18  22286253.540   117115078.11508     -2626.604          48.100    22286253.240   117115067.11907     -2626.667          47.850    22286254.920    91258521.68908     -2046.707          50.150    22286254.720    91258516.69107     -2046.707          46.000    22286259.860    87456102.63708     -1961.388          53.100
G23  21936312.800   115276179.87708      1148.514          48.200    21936312.680   115276183.87408      1148.619          48.100    21936314.740    89825632.70708       894.946          49.750    21936314.560    89825624.71207       894.947          46.600    21936319.980    86082948.09508       857.715          53.250
G26  21450418.540   112722704.54708     -2500.271          51.100                                                                    21450422.540    87835887.44008     -1948.265          50.850    21450422.420    87835886.43908     -1948.266          51.000    21450422.120    84176073.42709     -1867.166          55.950
G27  20626080.620   108390827.79108      1434.514          52.600                                                                    20626082.920    84460418.54108      1117.804          52.350    20626082.560    84460416.54108      1117.804          52.600    20626083.140    80941257.15809      1071.296          57.000
R07  23484933.720   125716730.20706       984.282          38.900    23484937.600    97779688.42006       765.555          40.300    23484937.760    97779679.44206       765.558          40.750
R08  24129221.580   129210905.37305      3263.490          35.550    24129229.260   100497405.01505      2538.277          31.300    24129229.060   100497404.98204      2538.273          28.850
R13  20607785.960   110044552.27407     -3326.392          44.750
R14  19680655.840   104909004.12308      1204.251          52.950    19680659.860    81595913.00508       936.640          50.750    19680659.900    81595925.00808       936.639          51.550
R15  23183863.960   123887535.98406      4065.258          41.350    23183868.080    96356991.64706      3161.868          41.550    23183868.220    96356995.64806      3161.869          41.250
R17  23587166.900   126219740.45707      3463.332          42.150    23587172.240    98170890.75706      2693.704          41.200    23587172.360    98170897.75907      2693.704          42.100
R23  20934807.200   111987114.28907     -2915.811          47.950
R24  19869446.100   106250917.93608      1264.420          53.050    19869448.280    82639643.14708       983.438          49.900    19869448.260    82639635.15108       983.439          50.450
E02  25379302.480   133369147.47648      2230.538          48.300    25379307.980    99593878.31608      1665.621          50.800    25379305.020   108254198.12208      1810.501          49.200    25379305.000   102191966.12408      1709.063          49.900    25379305.800   100892910.51408      1687.381          53.600
E10  24390221.640   128171519.31348     -1480.259          53.750    24390226.460    95712542.96609     -1105.380          54.750    24390224.520   104035346.71609     -1201.521          55.150    24390223.900    98209378.70609     -1134.266          54.400    24390224.480    96960955.63809     -1119.812          57.800
E11  21829308.720   114713835.80848        50.118          51.450    21829310.360    85662963.32708        37.391          53.200    21829306.640    93111891.29508        40.628          53.400    21829307.520    87897632.98408        38.330          52.350    21829308.380    86780292.45409        37.868          56.000
E12  25853423.000   135860663.40847     -2432.545          42.050    25853426.740   101454414.87307     -1816.384          45.600    25853422.580   110276519.56807     -1974.450          45.300    25853423.840   104101039.64507     -1863.877          44.800    25853424.860   102777724.06008     -1840.186          48.550
E16  25468845.080   133839677.80848     -2334.852          48.900    25468851.800    99945243.04408     -1743.570          50.200    25468846.880   108636112.95308     -1895.134          49.200    25468849.540   102552498.53308     -1789.019          50.150    25468849.740   101248857.58608     -1766.301          53.350
E25  23242581.200   122140603.99349      -221.684          54.900    23242586.520    91208936.72309      -165.553          55.800    23242581.600    99140120.21809      -179.958          56.950    23242583.780    93588285.62709      -169.862          55.850    23242584.620    92398594.97309      -167.715          59.000
E36  25321135.740   133063515.75648      2456.979          48.900    25321144.560    99365667.81008      1834.733          50.950    25321138.780   108006131.53608      1994.297          50.850    25321141.180   101957800.34508      1882.646          50.100    25321142.140   100661734.87408      1858.700          53.750
C06  39897761.160   209664155.57806      -619.562          38.050    39897760.940   207758127.43606      -614.585          39.400    39897766.300   156567419.10507      -463.152          43.900    39897763.420   168820504.85706      -499.335          40.150    39897762.640   160651767.66806      -475.230          39.600
C09                                                                  38865453.260   202382659.91707       172.368          44.250                                                                    38865457.000   164452541.51606       139.989          41.700                                                                    38865458.760   156495174.26207       133.216          44.050
C19  26118423.160   137253266.46406       793.565          37.000    26118425.020   136005520.26206       786.313          40.000    26118430.920   102494378.97707       592.492          43.850    26118425.480   110515655.20906       639.016          39.450    26118427.980   105168097.75206       607.988          40.700
C22  25890992.100   136058097.16306      2667.616          37.450    25890991.940   134821215.07906      2643.154          40.150    25890999.200   101601883.27207      1991.999          42.150    25890993.320   109553298.32606      2147.712          37.000    25890996.860   104252334.67606      2043.845          40.400
C24  22628272.500   118912371.59008     -1832.269          51.050    22628272.440   117831344.54208     -1815.702          52.950    22628273.640    88798198.98009     -1368.282          55.150    22628272.640    95747620.76308     -1475.356          51.100    22628270.760    91114663.43908     -1403.939          50.650
C25  23374562.280   122834166.71607      1564.561          46.150    23374562.680   121717496.14707      1550.282          47.650    23374565.240    91726835.97108      1168.357          49.900    23374563.680    98905444.93407      1259.798          45.900    23374562.460    94119697.96907      1198.787          46.100
C26  25446583.020   133722623.57106     -3438.704          39.350    25446583.380   132506981.22806     -3407.631          41.900    25446592.000    99857831.86507     -2567.954          43.750    25446589.300   107672789.51706     -2768.864          41.400    25446589.360   102462788.98206     -2634.924          41.350
C31  21505532.940   113012275.57808      -833.004          52.400    21505534.140   111984996.18909      -825.357          54.600    21505537.420    84392392.73009      -621.997          56.250    21505535.160    90996995.00708      -670.696          52.900    21505534.900    86593915.84308      -638.268          52.700
C34  22667819.100   119120248.52008      1845.445          48.700    22667819.160   118037344.21808      1828.658          50.000    22667823.840    88953493.11308      1378.133          51.800    22667821.300    95915045.32207      1485.980          47.100    22667821.400    91274000.39908      1414.071          48.950
C35  24728736.480   129950419.64807     -2624.736          42.450    24728737.100   128769002.00907     -2600.807          44.700    24728742.920    97040863.71807     -1960.009          45.950    24728739.980   104635364.89507     -2113.338          42.850    24728740.300    99572361.94707     -2011.095          42.400
S21  37764054.700                           5.768          46.150
S36  37791800.500   198597239.92507         1.837          47.800
> 2026 04 30 10 01  0.0000000  0 36
G02  24467896.260   128579660.13406      3427.584          37.550                                                                                                                                    24467899.380   100191964.22206      2670.846          36.750
G07  25167864.820   132258027.18406      1885.246          37.000                                                                    25167867.160   103058209.48306      1469.026          40.600    25167866.960   103058207.47206      1469.024          37.750
G08  22692445.060   119249622.07507      2754.266          43.050                                                                    22692449.200    92921815.88407      2146.184          44.250    22692448.600    92921812.87907      2146.183          43.200    22692449.120    89050083.33408      2056.903          50.650
G10  23141173.300   121607747.47907      2867.741          45.900                                                                    23141178.620    94759333.28707      2234.606          46.150    23141178.800    94759325.28607      2234.607          45.750    23141178.280    90811030.95008      2141.523          50.600
G16  20048185.280   105353947.58108      -446.872          51.600                                                                                                                                    20048184.480    82093995.39008      -348.213          51.550
G18  22301273.320   117194007.26507     -2635.421          47.550    22301273.040   117193996.25107     -2635.180          47.600    22301274.620    91320024.87208     -2053.576          49.600    22301274.440    91320019.87007     -2053.577          46.550    22301279.460    87515043.17208     -1967.883          53.200
G23  21929807.640   115241995.30908      1130.641          48.100    21929807.460   115241999.31408      1130.510          48.000    21929809.700    89798995.41208       881.020          49.750    21929809.500    89798987.41107       881.020          46.500    21929814.960    86057420.69208       844.166          53.400
G26  21464729.440   112797908.55008     -2513.173          50.850                                                                    21464733.420    87894487.89808     -1958.317          50.850    21464733.320    87894486.89308     -1958.318          50.850    21464733.040    84232232.17209     -1876.697          56.000
G27  20617920.060   108347943.96108      1424.291          52.650                                                                    20617922.420    84427002.57408      1109.837          52.550    20617922.040    84427000.57408      1109.837          52.550    20617922.640    80909233.52109      1063.654          57.100
R07  23479482.120   125687547.61506       961.307          39.200    23479486.660    97756990.89206       747.683          40.350    23479486.680    97756981.89706       747.685          41.500
R08  24110964.040   129113137.89505      3255.078          35.900    24110971.740   100421363.73305      2531.729          35.850    24110971.660   100421363.72706      2531.725          36.350
R13  20626523.040   110144606.70107     -3343.790          44.700
R14  19673948.600   104873250.32708      1179.498          52.950    19673952.540    81568104.48508       917.388          50.150    19673952.580    81568116.49008       917.388          50.800
R15  23161061.140   123765684.95606      4057.926          41.600    23161065.220    96262218.68306      3156.167          40.800    23161065.320    96262222.68506      3156.167          40.950
R17  23567769.460   126115942.35406      3456.776          40.600    23567775.200    98090158.95706      2688.608          40.850    23567775.240    98090165.96206      2688.608          41.350
R23  20951180.780   112074701.14207     -2923.123          47.400
R24  19862396.820   106213222.23308      1248.639          53.200    19862398.920    82610324.27008       971.164          49.300    19862398.920    82610316.27308       971.164          50.000
E02  25366582.380   133302303.08648      2225.874          48.400    25366587.840    99543962.05908      1662.186          50.850    25366585.060   108199941.31808      1806.735          49.800    25366584.960   102140747.69908      1705.567          50.000    25366585.720   100842343.17708      1683.897          53.700
E10  24398700.560   128216076.05748     -1490.072          53.750    24398705.240    95745815.83209     -1112.726          54.700    24398703.420   104071512.88809     -1209.486          55.250    24398702.740    98243519.56409     -1141.741          54.650    24398703.380    96994662.49709     -1127.226          57.950
E11  21829058.840   114712522.61948        37.532          51.450    21829060.440    85661982.70108        27.979          53.300    21829056.780    93110825.40008        30.426          53.650    21829057.620    87896626.77608        28.732          52.600    21829058.500    86779299.03709        28.347          56.200
E12  25867325.360   135933721.09747     -2437.850          42.400    25867329.080   101508970.88107     -1820.620          45.700    25867325.080   110335819.59107     -1978.855          45.450    25867326.400   104157018.84707     -1868.039          44.950    25867327.360   102832991.66408     -1844.323          48.650
E16  25482193.860   133909825.72648     -2341.641          48.700    25482200.680    99997626.09208     -1748.581          50.200    25482195.600   108693051.10908     -1900.668          49.550    25482198.340   102606248.12008     -1794.238          50.150    25482198.560   101301923.90508     -1771.407          53.400
E25  23243877.300   122147414.98149      -232.288          54.900    23243882.680    91214022.83109      -173.479          55.800    23243877.740    99145648.60509      -188.519          57.150    23243879.880    93593504.41409      -177.968          56.000    23243880.720    92403747.42109      -175.721          59.100
E36  25307132.300   132989927.02448      2448.938          48.800    25307140.940    99310715.24708      1828.798          50.900    25307135.280   107946400.46608      1987.795          51.000    25307137.700   101901414.23308      1876.481          50.300    25307138.560   100606065.53808      1852.615          53.850
C06  39901316.340   209682838.18506      -625.182          38.100    39901316.020   207776640.18306      -619.705          39.450    39901321.520   156581370.33407      -466.865          44.000    39901318.400   168835547.95306      -503.545          40.000    39901317.700   160666082.84206      -479.053          39.600
C09                                                                  38864478.660   202377584.17107       166.186          44.550                                                                    38864482.420   164448417.05807       134.943          42.000                                                                    38864483.860   156491249.35207       128.544          43.950
C19  26113936.800   137229690.35706       777.899          37.750    26113938.660   135982158.45706       771.317          39.600    26113944.540   102476773.43707       581.277          44.100    26113938.780   110496671.84206       626.703          39.950    26113941.860   105150032.95206       596.303          40.500
C22  25875776.560   135978140.82906      2662.545          36.100    25875776.420   134741985.61306      2638.847          40.150    25875783.940   101542175.89107      1988.643          44.200    25875777.780   109488918.05206      2144.250          37.950    25875781.600   104191069.68106      2040.518          40.050
C24  22638772.700   118967550.34008     -1846.197          50.900    22638772.720   117886021.66108     -1829.492          52.950    22638773.740    88839403.82609     -1378.671          55.200    22638772.880    95792050.36008     -1486.557          51.550    22638770.960    91156943.20008     -1414.617          50.700
C25  23365672.380   122787449.88207      1550.033          45.800    23365672.920   121671204.00608      1535.773          48.200    23365675.320    91691950.02908      1157.436          50.000    23365673.740    98867828.78407      1248.006          46.450    23365672.560    94083901.94707      1187.730          46.250
C26  25466221.620   133825824.95006     -3441.515          38.650    25466222.060   132609244.39706     -3410.159          41.750    25466230.500    99934897.52807     -2569.656          43.100    25466228.300   107755886.49906     -2770.863          41.150    25466228.200   102541865.05906     -2636.769          41.300
C31  21510312.180   113037390.58008      -841.318          52.300    21510313.460   112009882.87809      -833.687          54.750    21510316.740    84411147.42409      -628.220          56.350    21510314.420    91017217.46908      -677.407          53.400    21510314.100    86613159.79008      -644.605          52.850
C34  22657305.040   119064996.52808      1837.997          48.600    22657305.060   117982594.51608      1821.359          50.300    22657309.660    88912233.53408      1372.615          51.850    22657307.160    95870556.71307      1480.013          47.700    22657307.360    91231664.47708      1408.431          49.150
C35  24743725.460   130029185.73507     -2626.359          42.700    24743725.920   128847052.05607     -2602.426          45.100    24743731.500    97099682.42907     -1961.276          45.650    24743728.520   104698786.85907     -2114.658          43.100    24743728.980    99632715.07407     -2012.443          42.700
S21  37764020.840                           6.242          46.150
S36  37791789.160   198597180.64807         1.839          47.800
> 2026 04 30 10 01 30.0000000  0 36
G02  24448348.520   128476936.41305      3421.614          35.850                                                                                                                                    24448352.060   100111919.78105      2666.193          35.000
G07  25157140.820   132201672.75706      1871.606          38.700                                                                    25157143.440   103014296.97306      1458.391          39.000    25157143.080   103014294.97906      1458.394          39.050
G08  22676735.080   119167066.52207      2749.835          42.550                                                                    22676739.460    92857486.92507      2142.730          44.750    22676738.860    92857483.92107      2142.730          42.550    22676739.440    88988434.77408      2053.344          50.750
G10  23124828.980   121521857.82107      2858.511          46.500                                                                    23124834.280    94692406.36407      2227.414          46.000    23124834.460    94692398.36307      2227.414          46.550    23124833.980    90746892.66808      2134.641          50.900
G16  20050789.420   105367632.24508      -465.108          51.700                                                                                                                                    20050788.620    82104658.74408      -362.423          51.650
G18  22316343.960   117273204.18707     -2644.106          47.650    22316343.740   117273193.18607     -2644.101          47.300    22316345.260    91381736.69708     -2060.344          49.550    22316345.100    91381731.69407     -2060.345          46.050    22316350.220    87574183.66108     -1974.490          53.400
G23  21923407.660   115208363.50808      1112.002          48.400    21923407.480   115208367.50708      1111.916          48.350    21923409.740    89772788.83408       866.495          50.100    21923409.560    89772780.83507       866.495          46.700    21923415.120    86032306.05008       830.457          53.600
G26  21479114.800   112873503.98508     -2526.130          51.000                                                                    21479118.780    87953393.35808     -1968.416          51.150    21479118.680    87953392.35508     -1968.416          51.000    21479118.400    84288683.22909     -1886.382          56.100
G27  20609819.540   108305375.53308      1413.804          52.700                                                                    20609821.940    84393832.37308      1101.666          52.650    20609821.580    84393830.37308      1101.666          52.750    20609822.160    80877445.41309      1055.824          57.250
R07  23474161.320   125659065.21506       938.020          40.200    23474166.120    97734837.96506       729.571          39.600    23474165.980    97734828.96706       729.571          40.350
R08  24092754.160   129015626.63806      3246.312          38.650    24092762.000   100345521.77106      2524.915          40.000    24092761.940   100345521.77706      2524.915          39.950
R13  20645358.740   110245187.03907     -3361.215          45.350
R14  19667382.220   104838247.55208      1154.418          53.350    19667386.040    81540880.09408       897.880          50.250    19667386.100    81540892.09708       897.880          50.950
R15  23138300.700   123644060.57007      4050.711          42.950    23138304.720    96167621.96406      3150.555          41.850    23138304.840    96167625.95707      3150.555          42.050
R17  23548408.640   126012339.01407      3450.425          42.300    23548414.420    98009578.60306      2683.665          40.350    23548414.500    98009585.59506      2683.663          41.100
R23  20967596.260   112162512.07508     -2930.491          48.450
R24  19855437.720   106176008.57008      1232.609          53.850    19855439.800    82581380.32708       958.697          49.650    19855439.780    82581372.33408       958.697          50.250
E02  25353890.340   133235606.07048      2221.050          48.350    25353895.720    99494155.86208      1658.498          50.900    25353893.160   108145804.14108      1802.762          49.850    25353892.860   102089642.20808      1701.846          50.050    25353893.700   100791887.33408      1680.158          53.350
E10  24407236.720   128260933.80748     -1500.009          53.700    24407241.320    95779313.48109     -1120.165          54.800    24407239.480   104107923.38009     -1217.567          55.200    24407238.860    98277891.06609     -1149.367          54.850    24407239.560    97028597.07209     -1134.764          57.750
E11  21828881.860   114711592.52048        24.688          51.400    21828883.460    85661288.14108        18.458          53.500    21828879.780    93110070.44308        20.064          53.800    21828880.580    87895914.09308        18.962          52.800    21828881.500    86778595.41309        18.728          56.050
E12  25881260.360   136006950.70247     -2443.553          42.450    25881264.180   101563655.23407     -1824.707          45.750    25881260.160   110395259.13607     -1983.358          45.750    25881261.820   104213129.75407     -1872.277          45.450    25881262.520   102888389.28608     -1848.415          48.450
E16  25495582.860   133980184.97548     -2348.649          48.550    25495589.740   100050166.95508     -1753.750          50.100    25495584.580   108750160.78908     -1906.301          49.500    25495587.360   102660159.62108     -1799.530          50.500    25495587.580   101355150.09008     -1776.676          53.200
E25  23245235.360   122154551.70349      -243.075          55.000    23245240.840    91219352.17909      -181.529          56.000    23245235.860    99151441.38609      -197.343          57.300    23245237.980    93598972.79509      -186.266          56.200    23245238.800    92409146.28309      -183.895          58.950
E36  25293176.260   132916587.30348      2440.671          48.850    25293184.640    99255948.64008      1822.605          50.900    25293179.140   107886871.52008      1981.108          50.900    25293181.620   101845218.92008      1870.199          50.700    25293182.380   100550584.57608      1846.411          53.700
C06  39904902.920   209701685.42506      -630.887          38.300    39904902.560   207795316.06906      -625.268          40.000    39904908.020   156595444.51907      -470.895          44.000    39904904.620   168850723.60206      -507.870          39.900    39904904.140   160680524.19006      -483.288          39.700
C09                                                                  38863541.440   202372702.70407       159.655          44.650                                                                    38863545.100   164444450.45506       129.708          41.700                                                                    38863546.300   156487474.68207       123.545          44.200
C19  26109539.200   137206579.18706       762.946          37.250    26109540.520   135959257.41406       755.739          39.550    26109546.600   102459515.16807       569.662          44.550    26109540.960   110478062.90106       614.150          40.150    26109544.000   105132324.45206       584.652          41.050
C22  25860588.340   135898329.59906      2657.884          36.950    25860588.520   134662900.00506      2633.862          37.700    25860596.440   101482576.99407      1984.986          42.800    25860589.800   109424654.75006      2140.203          38.350    25860593.700   104129915.91806      2036.811          40.350
C24  22649353.580   119023153.04808     -1860.276          51.150    22649353.620   117941118.88508     -1843.431          52.750    22649354.580    88880925.26009     -1389.157          55.550    22649353.780    95836821.31808     -1497.872          51.300    22649351.800    91199547.81208     -1425.405          50.800
C25  23356866.300   122741173.53007      1535.292          45.700    23356867.000   121625348.34208      1521.398          48.350    23356869.280    91657393.01708      1146.569          50.250    23356867.660    98830567.30907      1236.238          46.250    23356866.540    94048443.45307      1176.478          46.650
C26  25485875.620   133929106.35606     -3443.900          38.800    25485876.100   132711586.85207     -3412.386          42.100    25485884.460   100012022.97807     -2571.741          44.300    25485882.400   107839047.93906     -2772.968          41.600    25485882.300   102621002.50006     -2638.779          41.300
C31  21515140.340   113062763.04508      -849.767          52.200    21515141.660   112035024.68109      -842.082          54.300    21515145.100    84430094.37509      -634.573          56.600    21515142.740    91037647.22708      -684.232          53.150    21515142.380    86632601.01108      -651.109          53.150
C34  22646834.520   119009973.45308      1830.469          48.750    22646834.460   117928071.65708      1813.778          50.300    22646839.040    88871144.89808      1366.914          52.150    22646836.660    95826252.43807      1473.845          47.700    22646836.820    91189503.96308      1402.668          49.400
C35  24758725.440   130108010.19807     -2628.305          42.700    24758725.860   128925159.92307     -2604.341          44.650    24758730.980    97158544.73107     -1962.577          45.650    24758728.520   104762255.80507     -2116.048          43.300    24758728.960    99693112.93407     -2013.886          42.650
S21  37763987.160                           5.935          46.100
S36  37791778.320   198597121.74207         2.207          47.800
> 2026 04 30 10 02  0.0000000  0 36
G02  24428832.120   128374378.39505      3415.713          35.450                                                                                                                                    24428835.920   100032004.54405      2661.599          35.650
G07  25146493.860   132145722.14206      1858.505          39.250                                                                    25146496.200   102970699.02506      1448.185          38.200    25146495.920   102970697.02306      1448.185          39.750
G08  22661052.420   119084654.43607      2745.052          42.950                                                                    22661057.000    92793269.75807      2139.001          45.350    22661056.400    92793266.76307      2139.002          42.850    22661056.940    88926893.33608      2049.835          50.700
G10  23108537.100   121436243.48707      2849.616          46.650                                                                    23108542.320    94625693.97907      2220.481          45.700    23108542.480    94625685.98007      2220.482          47.000    23108541.960    90682959.99408      2127.877          50.900
G16  20053496.940   105381860.25108      -483.032          51.650                                                                                                                                    20053496.140    82115745.47708      -376.390          51.650
G18  22331464.500   117352663.49707     -2652.632          47.350    22331464.380   117352652.50607     -2652.680          47.300    22331465.820    91443652.98608     -2066.987          49.000    22331465.620    91443647.98607     -2066.987          46.100    22331470.960    87633520.09008     -1980.900          53.300
G23  21917112.680   115175282.78608      1093.780          48.800    21917112.460   115175286.78808      1093.738          48.600    21917114.700    89747011.66908       852.297          49.900    21917114.500    89747003.66807       852.297          46.250    21917119.980    86007602.94208       816.780          53.350
G26  21493573.780   112949486.01508     -2538.891          51.150                                                                    21493577.840    88012600.05508     -1978.358          50.900    21493577.700    88012599.05608     -1978.358          50.900    21493577.380    84345422.97009     -1895.950          56.000
G27  20601778.560   108263119.96608      1403.657          52.650                                                                    20601780.980    84360905.96308      1093.760          52.450    20601780.640    84360903.96508      1093.760          52.550    20601781.160    80845890.93509      1048.160          57.150
R07  23468971.100   125631281.65506       914.796          40.650    23468975.780    97713228.59806       711.511          40.350    23468975.720    97713219.60006       711.513          41.300
R08  24074592.360   128918372.44306      3237.730          38.800    24074600.160   100269879.75506      2518.240          39.550    24074600.060   100269879.76506      2518.240          40.250
R13  20664291.620   110346286.74807     -3378.347          44.900
R14  19660956.420   104803994.63808      1129.471          53.050    19660960.320    81514238.92208       878.477          50.300    19660960.380    81514250.93208       878.478          51.150
R15  23115582.740   123522663.21707      4042.972          42.950    23115586.760    96073201.84806      3144.534          41.150    23115586.920    96073205.84107      3144.533          42.250
R17  23529083.800   125908928.06306      3444.216          40.300    23529089.800    97929147.91506      2678.838          41.200    23529089.900    97929154.91107      2678.837          42.000
R23  20984052.280   112250540.65107     -2937.531          47.450
R24  19848568.080   106139273.40308      1216.849          53.600    19848570.220    82552808.54408       946.438          49.750    19848570.160    82552800.55008       946.439          50.350
E02  25341226.020   133169054.58548      2216.266          48.250    25341231.260    99444458.33208      1654.987          50.700    25341228.820   108091785.08908      1798.905          49.750    25341228.400   102038648.22508      1698.158          49.750    25341229.400   100741541.57708      1676.538          53.550
E10  24415829.260   128306087.92048     -1509.706          53.600    24415833.820    95813032.42609     -1127.393          54.700    24415831.820   104144574.41809     -1225.401          54.800    24415831.420    98312489.64209     -1156.813          54.600    24415832.120    97062755.83409     -1142.100          57.950
E11  21828777.020   114711041.69048        12.203          51.350    21828778.720    85660876.80608         9.154          53.450    21828774.940    93109623.34408         9.944          53.600    21828775.780    87895492.03408         9.351          52.700    21828776.700    86778178.71609         9.278          56.400
E12  25895227.400   136080347.23647     -2448.926          42.850    25895230.920   101618464.27107     -1828.773          45.600    25895227.280   110454834.19507     -1987.831          45.300    25895228.860   104269368.59507     -1876.486          45.000    25895229.440   102943913.23108     -1852.633          48.700
E16  25509011.340   134050751.72848     -2355.381          48.100    25509018.300   100102862.78108     -1758.876          50.150    25509013.000   108807438.90608     -1911.841          48.950    25509016.000   102714230.12708     -1804.744          50.350    25509016.060   101408533.25408     -1781.826          53.550
E25  23246654.940   122162011.54449      -253.737          54.950    23246660.460    91224922.81409      -189.498          55.950    23246655.420    99157496.43509      -205.961          57.100    23246657.600    93604688.75109      -194.394          56.000    23246658.380    92414789.58209      -191.959          59.300
E36  25279267.180   132843494.31348      2432.615          49.250    25279275.260    99201366.28308      1816.542          50.600    25279270.060   107827542.84508      1974.534          50.900    25279272.380   101789212.66308      1863.936          50.550    25279273.200   100495290.26908      1840.242          53.900
C06  39908520.040   209720693.66906      -636.116          38.550    39908519.760   207814151.49706      -630.266          39.800    39908525.180   156609638.95307      -474.886          43.850    39908521.560   168866028.92206      -512.158          40.000    39908521.420   160695088.92206      -487.451          39.700
C09                                                                  38862640.800   202368012.09807       153.543          44.750                                                                    38862644.500   164440638.95106       124.656          41.800                                                                    38862645.480   156483847.61407       118.675          44.100
C19  26105229.540   137183931.13206       747.623          37.100    26105230.760   135936815.20206       741.316          39.300    26105237.080   102442602.70407       558.183          45.000    26105231.220   110459826.82806       602.091          40.300    26105234.200   105114970.76806       572.857          40.750
C22  25845427.920   135818663.18006      2653.619          36.900    25845428.100   134583957.79706      2629.218          38.150    25845435.880   101423086.11406      1981.442          41.150    25845429.860   109360507.98306      2136.658          39.300    25845433.700   104068873.10706      2033.244          39.850
C24  22660014.300   119079175.05808     -1874.183          51.300    22660014.280   117996631.60408     -1857.026          52.650    22660015.240    88922759.80909     -1399.475          55.400    22660014.440    95881929.90108     -1509.009          51.300    22660012.380    91242473.71108     -1435.972          50.650
C25  23348143.740   122695336.01807      1520.975          45.650    23348144.480   121579927.53008      1507.097          48.650    23348146.640    91623163.70608      1135.746          50.100    23348145.060    98793659.17207      1224.734          46.400    23348144.100    94013321.20007      1165.350          46.550
C26  25505544.000   134032462.57506     -3446.109          40.150    25505544.420   132814003.45907     -3414.740          42.600    25505552.940   100089204.25307     -2573.415          45.000    25505550.680   107922269.59007     -2774.753          42.050    25505550.660   102700197.23906     -2640.413          41.650
C31  21520016.820   113088388.90508      -858.060          52.550    21520018.080   112060417.58409      -850.276          54.450    21520021.660    84449230.55509      -640.789          56.450    21520019.240    91058281.02808      -690.961          53.200    21520018.940    86652236.39608      -657.536          53.050
C34  22636407.000   118955176.23208      1823.145          49.000    22636406.880   117873772.59208      1806.594          50.350    22636411.460    88830224.91508      1361.415          52.300    22636409.220    95782130.01308      1467.986          48.050    22636409.240    91147516.51008      1396.932          49.100
C35  24773735.740   130186889.05607     -2629.950          42.550    24773735.980   129003321.70507     -2605.939          43.900    24773741.300    97217447.65407     -1963.900          45.950    24773739.020   104825768.56507     -2117.570          43.150    24773739.200    99753552.45307     -2015.075          42.750
S21  37763953.960                           6.035          46.250
S36  37791768.320   198597069.59607         2.158          47.900
> 2026 04 30 10 02 30.0000000  0 36
G02  24409347.940   128271987.44206      3410.604          36.600                                                                                                                                    24409351.560    99952219.40005      2657.612          34.850
G07  25135923.820   132090176.43606      1844.479          37.400                                                                    25135926.180   102927416.68506      1437.257          39.100    25135925.920   102927414.68706      1437.259          36.750
G08  22645397.160   119002386.24907      2739.976          42.300                                                                    22645401.960    92729164.71607      2135.045          45.500    22645401.380    92729161.72306      2135.046          41.950    22645401.800    88865459.35308      2045.980          50.550
G10  23092298.060   121350907.15007      2839.814          46.700                                                                    23092303.260    94559198.23207      2212.845          46.100    23092303.440    94559190.22707      2212.846          46.900    23092302.920    90619234.90308      2120.614          50.950
G16  20056307.820   105396631.45408      -501.337          51.550                                                                                                                                    20056307.040    82127255.49308      -390.653          51.450
G18  22346634.600   117432382.75007     -2661.580          47.200    22346634.480   117432371.76207     -2661.684          47.200    22346635.900    91505771.83308     -2073.960          49.300    22346635.640    91505766.82307     -2073.961          46.450    22346641.160    87693050.62908     -1987.627          53.300
G23  21910922.760   115142754.37708      1075.098          48.400    21910922.540   115142758.38708      1075.046          48.450    21910924.820    89721664.87908       837.739          50.300    21910924.580    89721656.87607       837.739          46.850    21910929.840    85983312.27008       802.810          53.100
G26  21508105.940   113025852.64008     -2551.896          51.000                                                                    21508109.940    88072106.44008     -1988.494          50.550    21508109.860    88072105.44108     -1988.494          50.950    21508109.640    84402449.91209     -1905.707          56.000
G27  20593797.220   108221177.63108      1392.740          52.900                                                                    20593799.660    84328223.62008      1085.252          52.400    20593799.300    84328221.62408      1085.253          52.850    20593799.800    80814570.36009      1040.038          57.050
R07  23463911.900   125604198.14306       891.067          40.650    23463916.440    97692163.72506       693.055          39.750    23463916.340    97692154.73406       693.056          40.200
R08  24056479.300   128821379.21806      3228.538          37.900    24056486.880   100194440.74306      2511.087          37.750    24056486.720   100194440.75306      2511.089          37.150
R13  20683320.960   110447902.41007     -3395.659          44.600
R14  19654671.780   104770494.02908      1104.155          52.750    19654675.700    81488182.88908       858.788          50.250    19654675.720    81488194.89208       858.788          50.950
R15  23092908.120   123401496.46306      4035.017          41.750    23092912.220    95978961.09706      3138.349          41.600    23092912.340    95978965.08907      3138.349          42.050
R17  23509794.940   125805710.34406      3437.241          38.100    23509801.020    97848867.53306      2673.410          39.050    23509801.040    97848874.54806      2673.412          39.700
R23  21000548.520   112338784.41207     -2944.980          47.150
R24  19841787.780   106103015.98008      1200.628          53.300    19841789.900    82524608.33408       933.821          49.650    19841789.820    82524600.33808       933.822          50.300
E02  25328589.580   133102649.67748      2210.962          48.350    25328594.740    99394870.26608      1651.036          50.650    25328592.420   108037885.01108      1794.633          50.100    25328591.800   101987766.55408      1694.133          49.400    25328592.980   100691306.70908      1672.588          53.250
E10  24424477.840   128351536.62748     -1519.863          53.300    24424482.420    95846971.37009     -1135.020          54.550    24424480.200   104181464.58309     -1233.690          54.650    24424480.020    98347313.95509     -1164.621          54.400    24424480.760    97097137.46409     -1149.832          57.700
E11  21828744.140   114710869.12748         -.578          51.150    21828745.940    85660747.94708         -.451          53.300    21828742.040    93109483.28008         -.533          53.550    21828743.000    87895359.81308         -.476          52.450    21828743.860    86778048.18009         -.455          56.100
E12  25909225.880   136153908.93347     -2454.820          42.550    25909229.340   101673396.63207     -1833.153          45.450    25909225.580   110514543.32207     -1992.554          45.400    25909227.220   104325733.98807     -1880.961          44.750    25909227.800   102999562.10808     -1857.052          48.450
E16  25522479.060   134121525.11347     -2362.460          47.900    25522486.280   100155712.91108     -1764.298          50.350    25522480.820   108864884.74808     -1917.644          49.000    25522483.820   102768458.97608     -1810.288          49.850    25522483.840   101462072.74208     -1787.308          53.250
E25  23248136.040   122169794.75649      -264.865          54.900    23248141.580    91230734.93109      -197.801          55.800    23248136.500    99163813.95809      -214.996          57.100    23248138.740    93610652.49309      -202.969          55.850    23248139.480    92420677.51009      -200.377          59.000
E36  25265405.120   132770648.64648      2424.031          49.050    25265412.880    99146968.60008      1810.118          50.200    25265407.980   107768414.90708      1967.612          50.950    25265410.140   101733395.90608      1857.350          50.300    25265411.100   100440183.05108      1833.734          53.550
C06  39912167.780   209739862.15406      -641.481          38.600    39912167.220   207833145.76506      -636.003          39.800    39912172.880   156623953.05007      -479.087          43.650    39912169.140   168881463.25506      -516.534          39.650    39912169.080   160709776.44206      -491.682          39.100
C09                                                                  38861776.660   202363511.96107       146.787          44.600                                                                    38861780.460   164436982.20706       119.379          41.700                                                                    38861781.380   156480367.80607       113.555          44.050
