     3.04           OBSERVATION DATA    M                   RINEX VERSION / TYPE
Converto v3.5.11    IGN-RGP             20260501 012215 UTC PGM / RUN BY / DATE
SNR is mapped to RINEX snr flag value [1-9]                 COMMENT
LX:     < 12dBHz -> 1; 12-17dBHz -> 2; 18-23dBHz -> 3       COMMENT
       24-29dBHz -> 4; 30-35dBHz -> 5; 36-41dBHz -> 6       COMMENT
       42-47dBHz -> 7; 48-53dBHz -> 8; >= 54dBHz -> 9       COMMENT
SCOA                                                        MARKER NAME
10088M002                                                   MARKER NUMBER
Automatic           IGN                                     OBSERVER / AGENCY
2090134             LEICA GR50          4.83                REC # / TYPE / VERS
1440911777          TRM55971.00     NONE                    ANT # / TYPE
  4639940.8600  -136225.4840  4359551.9950                  APPROX POSITION XYZ
        0.0000        0.0000        0.0000                  ANTENNA: DELTA H/E/N
G   12 C1C L1C D1C S1C C2W L2W D2W S2W C5Q L5Q D5Q S5Q      SYS / # / OBS TYPES
R   12 C1C L1C D1C S1C C2P L2P D2P S2P C2C L2C D2C S2C      SYS / # / OBS TYPES
E   20 C1C L1C D1C S1C C5Q L5Q D5Q S5Q C6C L6C D6C S6C C7Q  SYS / # / OBS TYPES
       L7Q D7Q S7Q C8Q L8Q D8Q S8Q                          SYS / # / OBS TYPES
C   20 C1P L1P D1P S1P C2I L2I D2I S2I C5P L5P D5P S5P C6I  SYS / # / OBS TYPES
       L6I D6I S6I C7I L7I D7I S7I                          SYS / # / OBS TYPES
J   12 C1C L1C D1C S1C C2S L2S D2S S2S C5Q L5Q D5Q S5Q      SYS / # / OBS TYPES
S    4 C1C L1C D1C S1C                                      SYS / # / OBS TYPES
DBHZ                                                        SIGNAL STRENGTH UNIT
    30.000                                                  INTERVAL
  2026    04    30    10    00    0.0000000     GPS         TIME OF FIRST OBS
  2026    04    30    11    59   30.0000000     GPS         TIME OF LAST OBS
     0                                                      RCV CLOCK OFFS APPL
G L1C                                                       SYS / PHASE SHIFT
G L2W                                                       SYS / PHASE SHIFT
G L5Q -0.25000                                              SYS / PHASE SHIFT
R L1C                                                       SYS / PHASE SHIFT
R L2P  0.25000                                              SYS / PHASE SHIFT
R L2C                                                       SYS / PHASE SHIFT
E L1C  0.50000                                              SYS / PHASE SHIFT
E L5Q -0.25000                                              SYS / PHASE SHIFT
E L6C -0.50000                                              SYS / PHASE SHIFT
E L7Q -0.25000                                              SYS / PHASE SHIFT
E L8Q -0.25000                                              SYS / PHASE SHIFT
C L1P  0.25000                                              SYS / PHASE SHIFT
C L2I                                                       SYS / PHASE SHIFT
C L5P  0.25000                                              SYS / PHASE SHIFT
C L6I                                                       SYS / PHASE SHIFT
C L7I                                                       SYS / PHASE SHIFT
J L1C                                                       SYS / PHASE SHIFT
J L2S                                                       SYS / PHASE SHIFT
J L5Q -0.25000                                              SYS / PHASE SHIFT
S L1C                                                       SYS / PHASE SHIFT
 24 R01  1 R02 -4 R03  5 R04  6 R05  1 R06 -4 R07  5 R08  6 GLONASS SLOT / FRQ #
    R09 -2 R10 -7 R11  0 R12 -1 R13 -2 R14 -7 R15  0 R16 -1 GLONASS SLOT / FRQ #
    R17  4 R18 -3 R19  3 R20  2 R21  4 R22 -3 R23  3 R24  2 GLONASS SLOT / FRQ #
 C1C  -71.940 C1P  -71.940 C2C  -71.940 C2P  -71.940        GLONASS COD/PHS/BIS
    18    18  1929     7                                    LEAP SECONDS
                                                            END OF HEADER
> 2026 04 30 10 00  0.0000000  0 40
G02  24527731.196   128894099.65506      3437.159          41.200    24527733.345   100436978.41306      2678.308          36.200
G07  25195375.826   132402588.71906      1902.339          40.300    25195376.874   103170852.88206      1482.344          40.150
G08  22739773.789   119498362.81607      2773.018          42.200    22739776.794    93115623.36407      2160.795          42.250    22739778.542    89235818.19608      2070.698          49.200
G10  23168856.542   121753245.65508      2891.104          48.700    23168860.972    94872710.21808      2252.809          48.750    23168862.330    90919701.16308      2158.986          49.150
G16  20045824.365   105341541.40407      -410.000          46.150    20045822.764    82084315.22807      -319.481          46.200
G18  22255066.238   116951195.22407     -2609.653          43.750    22255066.328    91130814.37507     -2033.499          43.200    22255072.810    87333734.02408     -1948.770          51.800
G23  21928668.940   115236015.72707      1170.746          47.400    21928669.610    89794351.27607       912.270          44.850    21928676.071    86052952.44608       874.192          51.450
G26  21437601.020   112655368.95108     -2489.507          48.750    21437603.753    87783415.56008     -1939.878          48.550    21437605.396    84125779.98309     -1859.011          54.000
G27  20641536.018   108472061.14308      1459.062          49.450    20641536.733    84523713.71508      1136.932          49.650    20641538.839    81001904.96909      1089.545          55.000
G31  24993966.130   131344064.07607     -3530.246          43.350    24993970.306   102346001.98007     -2750.849          42.800
R07  23470836.160   125641259.33506      1000.299          37.600    23470839.877    97721007.80406       778.002          37.400    23470839.969    97720999.80306       778.002          37.700
R08  24127814.049   129203341.86606      3275.155          38.850    24127823.245   100491541.79106      2547.349          39.900    24127823.276   100491538.79606      2547.348          41.100
R13  20593680.598   109969087.86607     -3314.790          43.200
R14  19693712.338   104978604.53607      1223.020          47.050    19693717.679    81650043.20208       951.238          49.800    19693717.611    81650042.20508       951.238          50.400
R15  23209897.547   124026650.60206      4071.324          41.250    23209903.379    96465195.37106      3166.588          40.050    23209903.329    96465198.37906      3166.588          40.350
R17  23627976.119   126438072.41207      3469.773          42.900    23627983.220    98340743.54606      2698.711          41.000    23627983.251    98340745.55406      2698.712          41.800
R22  24135552.903   128837206.83006     -3730.581          40.700    24135559.295   100206748.06305     -2901.558          32.250    24135559.302   100206748.06905     -2901.558          33.150
R23  20904512.849   111825063.97407     -2895.622          44.300
R24  19887063.284   106345207.28508      1294.913          48.700    19887066.973    82712923.04808      1007.155          49.750    19887067.042    82712929.04908      1007.156          50.350
E02  25400598.049   133481060.99747      2238.569          45.450    25400604.180    99677446.52408      1671.707          50.200    25400600.196   108345030.74708      1817.083          49.550    25400599.863   102277708.57508      1715.344          49.450    25400601.997   100977567.85908      1693.546          52.550
E10  24369791.724   128064157.24048     -1463.336          49.750    24369797.152    95632368.79108     -1092.717          52.400    24369794.186   103948200.66209     -1187.740          54.450    24369793.308    98127106.29108     -1121.261          52.400    24369795.047    96879737.85209     -1107.001          55.050
E11  21826897.571   114701167.42247        70.752          46.250    21826899.706    85653500.21308        52.803          50.600    21826895.530    93101610.91308        57.381          53.350    21826895.612    87887927.21708        54.193          50.300    21826897.644    86770705.02308        53.510          53.100
E12  25822230.393   135696758.52046     -2422.135          41.300    25822235.096   101332013.06507     -1808.775          45.000    25822229.793   110143475.28107     -1965.999          46.800    25822230.567   103975452.82107     -1855.850          44.100    25822232.807   102653729.75107     -1832.364          47.200
E16  25448230.046   133731383.69048     -2331.918          49.350    25448237.410    99864391.14708     -1741.354          48.300    25448231.752   108548215.04208     -1892.821          50.400    25448233.526   102469517.46008     -1786.804          48.850    25448235.331   101166951.61508     -1764.117          51.150
E25  23241752.345   122136238.87648      -210.560          49.800    23241757.610    91205671.59708      -157.234          53.100    23241752.562    99136566.64109      -170.896          56.900    23241753.385    93584931.80208      -161.294          53.200    23241755.983    92395295.51109      -159.292          55.850
E36  25348697.503   133208361.43548      2467.667          48.500    25348705.862    99473832.18608      1842.758          48.550    25348699.171   108123684.23408      2003.065          50.650    25348701.574   102068792.33408      1890.872          49.550    25348703.344   100771317.06508      1866.807          51.450
C06  39877425.814   209557301.69106      -616.393          37.150    39877424.432   207652247.08606      -610.698          36.500    39877430.151   156487632.28107      -460.242          42.450    39877427.574   168734462.15206      -496.468          39.950
C09                                                                  38848655.458   202295214.26706       176.430          38.250                                                                    38848659.663   164381472.73907       143.458          42.050    38848660.776   156427527.44507       136.558          42.850
C12  26335142.668   138392115.23405      -496.622          34.600    26335142.473   137133987.63205      -492.823          32.050    26335166.277   103344862.71106      -371.094          39.500    26335146.744   111432637.45906      -400.044          40.700
C19  26101919.418   137166525.08006       806.279          37.600    26101921.763   135919590.30705       798.538          33.500    26101928.399   102429631.61307       602.017          44.400    26101922.410   110445837.93206       649.105          38.800
C20                                                                  27418756.370   142776661.65304     -1265.944          28.150    27418762.404   107597125.50307      -954.232          42.700    27418756.628   116017732.16906     -1029.115          38.750
C22  25890245.384   136054200.10806      2677.128          40.350    25890245.814   134817338.62206      2652.872          41.400    25890255.065   101598961.96307      1999.176          43.100    25890248.674   109550161.32406      2155.810          38.300
C24  22628547.380   118913824.90508     -1822.108          48.300    22628547.626   117832790.71907     -1805.494          47.950    22628549.146    88799288.52608     -1360.677          53.200    22628548.177    95748789.14208     -1467.182          52.000
C25  23393738.142   122934938.78307      1573.343          45.550    23393738.857   121817354.12107      1559.101          45.850    23393741.670    91802085.75708      1174.908          48.700    23393739.913    98986589.25608      1266.872          48.650
C26  25431759.576   133644753.09507     -3437.413          42.600    25431759.905   132429803.90006     -3405.981          41.550    25431770.330    99799662.85007     -2566.786          43.600    25431766.437   107610065.44007     -2767.698          44.300
C31  21495261.668   112958410.89607      -811.363          47.150    21495263.078   111931525.19707      -803.958          47.550    21495267.221    84352108.52709      -605.880          54.250    21495264.320    90953553.72608      -653.257          52.800
C34  22693249.149   119253882.39007      1862.545          45.650    22693249.271   118169756.21707      1845.560          45.900    22693254.351    89053285.56608      1390.820          50.150    22693252.215    96022640.99008      1499.673          48.850
C35  24694055.404   129768137.11106     -2617.949          40.050    24694056.823   128588431.23607     -2593.847          43.650    24694062.818    96904799.59407     -1954.810          45.950    24694059.420   104488641.19907     -2107.892          44.900
S21  37771605.244                           5.531          45.600
S36  37795352.054   198615900.79007         1.498          47.050
> 2026 04 30 10 00 30.0000000  0 40
G02  24508123.501   128791061.16306      3432.477          37.400    24508125.690   100356688.66506      2674.663          37.000
G07  25184555.060   132345724.72806      1888.829          39.800    25184556.106   103126543.28206      1471.815          39.700
G08  22723956.463   119415242.40707      2768.417          42.350    22723959.449    93050854.25907      2157.209          42.650    22723961.076    89173747.80508      2067.419          49.200
G10  23152376.679   121666644.20107      2882.414          45.000    23152380.664    94805228.61407      2246.041          44.850    23152382.011    90855031.33308      2152.433          49.150
G16  20048216.236   105354110.15707      -427.806          45.950    20048214.605    82094109.03807      -333.356          46.150
G18  22269989.278   117029616.83107     -2618.425          45.350    22269989.377    91191922.07207     -2040.334          44.550    22269996.256    87392295.53108     -1955.278          51.250
G23  21922037.315   115201166.59107      1152.525          46.600    21922037.985    89767196.12907       898.072          45.300    21922044.617    86026928.75708       860.796          51.500
G26  21451849.826   112730246.62708     -2502.437          48.300    21451852.605    87841761.72808     -1949.953          48.000    21451854.178    84181695.04608     -1868.606          53.850
G27  20633236.038   108428444.60008      1448.859          49.200    20633236.760    84489726.80608      1128.981          49.050    20633238.832    80969334.18509      1081.920          54.850
G31  25014113.950   131449940.98906     -3527.809          40.250    25014118.689   102428503.14806     -2748.956          40.500
R07  23465294.348   125611594.21905       977.850          32.200    23465297.427    97697934.95206       760.541          39.250    23465297.601    97697926.95306       760.542          40.100
R08  24109487.506   129105204.65606      3267.277          36.900    24109496.348   100415213.01805      2541.219          35.750    24109496.348   100415210.06206      2541.229          37.400
R13  20612352.898   110068796.06707     -3332.089          43.500
R14  19686899.428   104942287.71807      1198.298          47.050    19686904.802    81621796.78408       932.009          49.700    19686904.699    81621795.79008       932.010          50.300
R15  23187061.411   123904621.70006      4064.038          41.100    23187067.080    96370284.01406      3160.920          39.550    23187067.043    96370287.01806      3160.921          39.950
R17  23608540.954   126334070.98306      3463.973          39.650    23608547.780    98259853.53306      2694.202          41.450    23608548.006    98259855.53907      2694.203          42.000
R22  24156511.111   128949082.35406     -3727.776          36.600    24156517.672   100293762.25506     -2899.388          37.500    24156517.703   100293762.25306     -2899.387          37.900
R23  20920772.904   111912044.52607     -2903.104          42.100
R24  19879843.222   106306598.15608      1279.228          48.800    19879846.869    82682893.74408       994.956          49.750    19879846.923    82682899.74608       994.955          50.400
E02  25387831.107   133413970.47847      2234.129          45.050    25387837.251    99627346.47308      1668.402          50.150    25387833.338   108290574.17408      1813.404          49.350    25387832.925   102226301.56808      1711.901          49.600    25387835.068   100926814.33208      1690.133          52.650
E10  24378173.679   128108204.63548     -1473.019          49.250    24378179.092    95665261.30808     -1100.004          52.400    24378176.185   103983953.40409     -1195.622          54.350    24378175.237    98160856.87408     -1128.714          52.550    24378176.999    96913059.40009     -1114.342          55.150
E11  21826530.282   114699237.44247        58.202          45.900    21826532.436    85652058.98408        43.433          50.550    21826528.285    93100044.35908        47.224          53.300    21826528.348    87886448.39708        44.516          50.350    21826530.381    86769244.99708        44.003          53.200
E12  25836074.562   135769507.21446     -2427.639          40.500    25836079.131   101386338.32407     -1812.825          44.650    25836074.007   110202524.51307     -1970.527          46.650    25836074.596   104031195.27407     -1860.151          44.400    25836076.558   102708763.60607     -1836.472          47.200
E16  25461562.333   133801445.31147     -2338.739          47.150    25461569.442    99916709.75007     -1746.404          47.900    25461564.513   108605083.13308     -1898.331          50.800    25461566.149   102523200.90708     -1791.960          48.700    25461567.656   101219952.63708     -1769.195          50.950
E25  23242984.786   122142715.44948      -221.022          49.500    23242990.063    91210507.98508      -165.096          53.000    23242985.043    99141823.59309      -179.439          56.850    23242985.912    93589894.36308      -169.422          53.350    23242988.451    92400194.98509      -167.265          55.950
E36  25334632.539   133134449.76448      2459.907          48.100    25334640.623    99418638.47807      1836.865          47.900    25334634.184   108063691.04708      1996.640          50.850    25334636.859   102012158.79908      1884.779          49.750    25334638.458   100715403.44408      1860.825          51.400
C06  39880958.715   209575870.91605      -621.624          35.700    39880958.703   207670647.47306      -615.772          36.100    39880963.443   156501498.87207      -464.032          42.550    39880960.468   168749413.95606      -500.273          39.100
C09                                                                  38847655.784   202290008.96206       170.289          39.200                                                                    38847660.075   164377243.01607       138.439          42.050    38847661.259   156423502.41307       131.789          42.800
C12  26338023.666   138407256.16505      -512.915          34.250    26338022.994   137148998.86715      -508.530          30.500    26338047.978   103356169.19806      -382.771          40.400    26338028.172   111444828.79906      -412.562          40.900
C19  26097360.282   137142567.62506       790.976          37.800    26097361.736   135895850.60606       783.871          36.350    26097370.183   102411741.32107       590.770          44.400    26097362.758   110426547.49906       636.907          39.000
C20                                                                  27426094.932   142814888.55614     -1280.317          29.300    27426099.549   107625918.38007      -965.156          43.800    27426093.678   116048778.39406     -1040.600          39.550
C22  25874974.856   135973952.66906      2672.738          38.850    25874975.481   134737820.75306      2648.492          41.550    25874984.130   101539037.19506      1995.959          41.450    25874977.449   109485546.68206      2152.224          40.200
C24  22638989.328   118968697.54307     -1836.060          47.700    22638989.507   117887164.51908     -1819.269          48.200    22638991.282    88840264.78108     -1370.997          53.200    22638990.219    95792972.25608     -1478.271          51.650
C25  23384797.512   122887955.27807      1559.238          45.050    23384798.232   121770797.75107      1544.879          45.650    23384800.914    91767000.67508      1164.286          48.700    23384799.203    98948758.38808      1255.348          48.700
C26  25451389.705   133747909.19406     -3439.644          41.000    25451389.753   132532022.23607     -3408.463          42.850    25451399.983    99876694.74807     -2568.602          43.700    25451396.812   107693125.97706     -2769.675          40.850
C31  21499917.677   112982878.38207      -819.634          46.900    21499919.087   111955770.24707      -812.216          47.650    21499923.258    84370379.68909      -612.103          54.150    21499920.340    90973254.81508      -659.999          52.600
C34  22682637.322   119198116.87007      1855.237          45.550    22682637.379   118114497.66307      1838.363          45.950    22682642.460    89011642.51308      1385.405          50.000    22682640.295    95977738.89808      1493.927          48.850
C35  24709005.675   129846697.86907     -2619.439          42.100    24709005.842   128666277.83806     -2595.736          40.600    24709012.583    96963464.97007     -1956.145          45.050    24709009.603   104551897.80707     -2109.092          44.150
S21  37771572.821                           6.063          45.250
S36  37795340.975   198615844.93907         2.021          46.900
> 2026 04 30 10 01  0.0000000  0 41
G02  24488546.076   128688180.88706      3426.780          39.650    24488548.218   100276522.29406      2670.218          37.950
G07  25173809.875   132289258.68306      1875.296          39.250    25173811.125   103082543.78606      1461.270          39.500
G08  22708165.303   119332259.64007      2763.741          42.700    22708168.322    92986192.40607      2153.566          42.350    22708169.793    89111780.21408      2063.889          49.300
G10  23135947.467   121580309.27008      2873.389          48.000    23135951.917    94737954.74507      2239.007          47.800    23135953.227    90790560.56408      2145.674          50.350
G16  20050711.133   105367220.59407      -445.888          46.450    20050709.464    82104324.94107      -347.446          46.550
G18  22284962.658   117108302.58607     -2626.973          45.850    22284962.833    91253235.58607     -2046.994          44.800    22284969.703    87451054.33908     -1961.891          51.000
G23  21915509.383   115166862.57407      1134.371          47.150    21915510.153    89740465.75707       883.926          45.200    21915516.927    86001312.16708       847.113          51.850
G26  21466172.284   112805511.43208     -2515.232          48.700    21466175.143    87900409.55008     -1959.924          48.600    21466176.612    84237899.20409     -1878.251          54.000
G27  20624994.755   108385136.28608      1438.562          49.550    20624995.451    84455980.06608      1120.957          49.700    20624997.456    80936993.56009      1074.225          55.050
G31  25034248.261   131555747.09107     -3525.492          43.350    25034253.298   102510949.17407     -2747.138          42.950
R07  23459880.774   125582622.05905       954.337          32.700    23459885.240    97675401.12006       742.263          39.650    23459885.530    97675393.12606       742.263          40.350
R08  24091206.794   129007313.87006      3258.793          37.550    24091215.592   100339075.89306      2534.627          38.250    24091215.601   100339072.87106      2534.625          37.400
R13  20631123.008   110169026.66707     -3349.570          43.100
R14  19680226.058   104906714.87007      1173.409          47.350    19680231.464    81594129.00708       912.651          49.650    19680231.417    81594128.01108       912.651          50.350
R15  23164266.126   123782810.63606      4056.937          41.600    23164271.439    96275542.09006      3155.392          37.600    23164271.382    96275545.09506      3155.392          37.500
R17  23589139.847   126230254.04106      3457.685          40.650    23589147.374    98179107.15407      2689.316          43.300    23589147.493    98179109.15807      2689.316          43.850
R22  24177454.643   129060881.44105     -3725.132          35.300    24177461.779   100380716.84406     -2897.333          36.650    24177461.836   100380716.83606     -2897.333          36.750
R23  20937074.350   111999245.88506     -2910.359          41.600
R24  19872711.766   106268462.86108      1263.376          48.750    19872715.383    82653232.96908       982.627          49.800    19872715.429    82653238.97208       982.626          50.350
E02  25375090.936   133347020.42847      2229.403          45.600    25375097.114    99577351.33108      1664.791          50.200    25375093.124   108236231.61408      1809.574          48.850    25375092.844   102175002.20308      1708.177          49.750    25375094.888   100876167.07708      1686.469          52.950
E10  24386611.955   128152547.95048     -1482.989          49.750    24386617.352    95698374.80108     -1107.414          52.600    24386614.469   104019946.34509     -1203.737          54.350    24386613.481    98194834.19908     -1136.302          52.600    24386615.263    96946604.81009     -1121.868          55.450
E11  21826234.703   114697684.06347        45.551          46.300    21826236.830    85650898.99408        33.970          50.750    21826232.707    93098783.50208        36.899          53.200    21826232.752    87885258.14208        34.841          50.550    21826234.782    86768069.87808        34.392          53.650
E12  25849950.061   135842423.14746     -2432.989          38.200    25849954.524   101440788.44807     -1817.063          44.050    25849949.812   110261709.43707     -1974.990          45.150    25849950.551   104087065.81407     -1864.326          44.000    25849952.051   102763923.94307     -1840.669          47.050
E16  25474933.449   133871712.94647     -2345.664          47.900    25474940.935    99969182.16908     -1751.573          48.650    25474936.398   108662118.40208     -1903.933          50.200    25474937.573   102577042.18008     -1797.319          48.350    25474939.174   101273109.48308     -1774.426          51.400
E25  23244278.115   122149511.97448      -231.743          49.650    23244283.409    91215583.29008      -173.128          53.250    23244278.388    99147340.23709      -188.174          56.700    23244279.307    93595102.07008      -177.653          53.550    23244281.798    92405336.48909      -175.369          56.300
E36  25320613.272   133060778.72848      2451.856          48.050    25320621.085    99363624.45408      1830.803          48.100    25320615.233   108003893.17708      1990.045          51.400    25320617.737   101955709.63308      1878.544          49.600    25320619.447   100659671.85008      1854.674          51.750
C06  39884521.784   209594598.54605      -626.836          34.550    39884522.913   207689204.80606      -621.206          38.550    39884527.342   156515483.73607      -467.954          43.350    39884523.743   168764493.31606      -504.828          38.700
C09                                                                  38846692.473   202284991.42606       164.266          39.400                                                                    38846696.788   164373165.86907       133.410          42.050    38846697.470   156419622.53007       127.048          43.100
C12                                                                                                                                  26341019.989   103367829.45206      -394.524          41.800    26340999.621   111457401.59306      -425.585          40.800
C19  26092888.801   137119068.50106       775.660          38.700    26092889.528   135872565.04806       768.874          36.700    26092898.824   102394193.26807       579.306          44.900    26092890.513   110407626.09306       624.667          39.250
C20  27433513.291   144164085.11514     -1308.365          28.750    27433515.973   142853503.97515     -1295.025          30.750    27433520.214   107655039.40907      -976.209          43.000    27433514.528   116080178.43406     -1052.405          39.900
C22  25859729.936   135893842.15606      2668.177          38.650    25859730.790   134658438.53506      2644.035          39.550    25859738.876   101479214.66606      1992.455          41.500    25859733.257   109421042.37207      2148.339          43.150
C24  22649510.883   119023988.89007     -1849.931          47.800    22649511.171   117941953.21008     -1833.007          48.650    22649512.989    88881553.70408     -1381.450          53.300    22649511.753    95837492.51108     -1489.589          51.600
C25  23375939.298   122841405.24007      1544.392          45.450    23375940.131   121724670.89007      1530.439          45.950    23375942.828    91732239.29208      1153.299          48.950    23375940.962    98911276.54308      1243.560          48.700
C26  25471034.010   133851140.17106     -3442.003          41.750    25471034.452   132634314.71707     -3410.960          43.650    25471044.739    99953782.49607     -2570.482          45.200    25471040.311   107776246.83906     -2771.567          41.900
C31  21504621.706   113007598.21907      -827.991          47.200    21504623.135   111980265.36407      -820.464          47.750    21504627.312    84388839.29609      -618.429          54.400    21504624.388    90993159.09608      -666.808          52.800
C34  22672067.580   119142572.39907      1847.761          45.750    22672067.565   118059458.12507      1831.128          46.100    22672072.644    88970164.52108      1379.897          50.250    22672070.471    95933014.80108      1487.882          48.950
C35  24723965.721   129925312.66706     -2621.462          38.450    24723965.281   128744177.96207     -2597.377          43.700    24723971.917    97022170.72807     -1957.401          44.500    24723969.023   104615197.97707     -2110.611          42.950
S21  37771539.094                           6.044          45.900
S23  38245398.553   200980923.93717        -1.168          46.350
S36  37795329.615   198615785.57707         2.004          47.150
> 2026 04 30 10 01 30.0000000  0 40
G02  24468999.981   128585465.03306      3420.927          41.750    24469001.798   100196483.96606      2665.654          39.800
G07  25163141.484   132233196.84806      1862.271          39.050    25163142.755   103038859.27606      1451.122          38.700
G08  22692401.483   119249419.88107      2759.220          43.050    22692404.395    92921641.98807      2150.043          42.900    22692405.817    89049919.40608      2060.310          49.300
G10  23119570.846   121494248.36207      2864.276          47.550    23119575.484    94670894.37207      2231.905          47.350    23119576.824    90726294.39308      2138.898          49.850
G16  20053309.767   105380876.44607      -464.056          46.450    20053308.103    82114965.84307      -361.603          46.300
G18  22299986.795   117187254.98207     -2636.065          45.400    22299987.071    91314756.88607     -2054.073          44.350    22299993.731    87510012.21308     -1968.507          50.950
G23  21909086.452   115133109.83507      1115.902          47.700    21909087.174    89714164.94007       869.537          44.650    21909094.068    85976107.22908       833.347          51.550
G26  21480569.019   112881166.25108     -2528.340          48.900    21480571.850    87959361.28208     -1970.138          48.950    21480573.257    84294394.59608     -1887.935          53.900
G27  20616813.123   108342141.43008      1428.164          49.550    20616813.811    84422477.58308      1112.855          49.550    20616815.726    80904887.02509      1066.395          54.900
G31  25054369.817   131661484.35606     -3523.103          41.200    25054374.340   102593341.60207     -2745.289          42.100
R07  23454596.919   125554349.76605       930.818          33.450    23454604.392    97653411.60906       723.961          39.850    23454604.481    97653403.60806       723.961          40.200
R08  24072974.310   128909679.11106      3250.199          39.250    24072982.959   100263137.89106      2527.941          40.200    24072982.915   100263134.86606      2527.935          40.350
R13  20649991.157   110269780.80707     -3366.905          43.250
R14  19673693.473   104871892.58307      1148.275          47.450    19673698.820    81567044.99208       893.102          49.700    19673698.813    81567043.99408       893.102          50.300
R15  23141512.988   123661226.15106      4049.240          39.800    23141518.952    96180976.43406      3149.415          41.700    23141518.997    96180979.43807      3149.416          42.300
R17  23569775.031   126126627.80007      3451.273          42.900    23569782.241    98098508.99406      2684.324          41.650    23569782.394    98098511.00107      2684.325          42.400
R22  24198384.865   129172606.93506     -3722.935          39.900    24198391.768   100467614.40405     -2895.615          30.700    24198391.677   100467614.39805     -2895.615          31.100
R23  20953417.500   112086670.75106     -2917.632          41.850
R24  19865669.618   106230805.66608      1247.250          48.950    19865673.309    82623944.05508       970.084          50.000    19865673.381    82623950.05808       970.084          50.600
E02  25362378.598   133280216.77547      2224.346          45.600    25362384.744    99527465.49908      1661.101          50.100    25362380.779   108182007.87308      1805.587          49.050    25362380.494   102123814.99908      1704.457          49.750    25362382.587   100825630.56008      1682.774          52.500
E10  24395107.162   128197190.29948     -1492.986          49.800    24395112.536    95731711.59408     -1114.894          52.550    24395109.668   104056181.99409     -1211.831          54.350    24395108.638    98229040.64608     -1143.967          52.650    24395110.425    96980376.42909     -1129.427          55.200
E11  21826011.519   114696511.23947        32.647          46.200    21826013.655    85650023.18108        24.412          50.700    21826009.517    93097831.52908        26.542          53.150    21826009.575    87884359.48008        25.037          50.700    21826011.600    86767182.64008        24.741          53.250
E12  25863857.600   135915509.22346     -2438.705          37.500    25863861.902   101495365.63707     -1821.140          43.800    25863857.141   110321032.50307     -1979.721          44.950    25863858.107   104143066.78307     -1868.859          44.100    25863859.805   102819213.02107     -1845.046          46.600
E16  25488345.395   133942190.48448     -2352.698          49.900    25488352.852   100021811.37108     -1756.796          48.800    25488347.506   108719324.11608     -1909.630          49.350    25488348.883   102631044.34408     -1802.702          48.450    25488350.801   101326425.16808     -1779.724          51.150
E25  23245633.281   122156633.58548      -242.809          49.600    23245638.630    91220901.35108      -181.276          53.150    23245633.591    99153120.74309      -197.036          56.650    23245634.554    93600558.86208      -185.947          53.650    23245637.006    92410723.91809      -183.611          56.000
E36  25306640.766   132987353.77547      2443.552          47.650    25306648.532    99308794.19508      1824.606          48.200    25306643.292   107944295.06408      1983.293          51.750    25306645.150   101899449.01908      1872.230          49.250    25306647.240   100604126.41308      1848.428          51.350
C06  39888116.207   209613488.53105      -632.518          35.200    39888118.271   207707923.13106      -626.392          37.650    39888122.358   156529589.88107      -472.142          42.900    39888117.847   168779703.42406      -509.091          38.350
C09                                                                  38845765.688   202280166.14806       157.535          41.300                                                                    38845770.094   164369244.91807       128.234          42.900    38845770.788   156415891.31207       121.981          42.050
C12                                                                  26344058.504                        -539.416          33.650    26344082.798   103379846.66407      -406.497          44.000    26344061.968   111470359.26806      -438.291          41.050
C19  26088505.807   137096033.41306       760.332          37.150    26088506.345   135849739.43705       753.163          35.100    26088515.671   102376991.80007       567.709          44.650    26088506.996   110389078.43406       612.194          39.400
C20  27441017.951   144203524.50515     -1322.077          31.550    27441020.258   142892584.88105     -1310.131          33.300    27441025.236   107684490.85907      -987.180          42.400    27441019.708   116111934.80406     -1064.523          39.850
C22  25844512.552   135813875.81006      2663.227          40.150    25844513.225   134579199.15806      2639.337          40.050    25844521.473   101419499.85707      1988.758          42.150    25844516.405   109356654.13307      2144.306          42.400
C24  22660112.716   119079702.02307     -1863.948          47.850    22660113.187   117997159.86208     -1847.069          48.650    22660114.884    88923157.60208     -1391.972          53.150    22660113.404    95882352.39308     -1500.915          51.000
C25  23367164.710   122795294.68907      1529.726          45.300    23367165.567   121678979.51607      1515.922          45.700    23367168.194    91697806.08608      1142.303          48.950    23367166.467    98874148.56708      1231.719          48.400
C26  25490693.309   133954448.46607     -3444.475          42.200    25490693.428   132736683.86407     -3413.436          42.350    25490704.229   100030927.98007     -2572.428          43.650    25490700.058   107859429.90307     -2773.775          43.700
C31  21509374.482   113032574.15607      -836.740          47.150    21509375.934   112005014.23507      -829.047          47.850    21509380.092    84407490.12609      -624.789          54.300    21509377.153    91013269.55908      -673.706          52.600
C34  22661540.757   119087253.65907      1840.304          45.400    22661540.760   118004642.29207      1823.599          46.100    22661545.770    88928855.09508      1374.194          50.100    22661543.618    95888472.45508      1481.758          48.900
C35  24738936.285   130003985.29406     -2623.408          38.900    24738936.989   128822135.33507     -2599.102          43.350    24738942.762    97080919.63407     -1958.978          44.650    24738939.608   104678544.66507     -2112.235          43.100
S21  37771505.785                           5.813          45.650
S36  37795317.991   198615724.72107         2.118          47.100
> 2026 04 30 10 02  0.0000000  0 39
G02  24449484.870   128482914.52206      3415.505          40.550    24449487.091   100116574.51806      2661.432          39.800
G07  25152550.380   132177540.87606      1848.561          39.150    25152551.388   102995490.96606      1440.436          39.000
G08  22676665.029   119166723.77807      2754.053          42.700    22676667.831    92857203.50007      2146.016          42.950    22676669.251    88988165.85408      2056.641          49.250
G10  23103246.456   121408464.05107      2854.722          47.050    23103250.978    94604049.55807      2224.463          47.000    23103252.331    90662234.79008      2131.816          48.850
G16  20056012.407   105395078.16207      -482.526          46.350    20056010.638    82126032.09607      -375.995          46.650
G18  22315061.307   117266471.61807     -2645.022          45.500    22315061.443    91376484.09007     -2061.053          44.850    22315068.320    87569167.41708     -1975.151          51.700
G23  21902768.723   115099909.73907      1097.388          47.250    21902769.402    89688294.75807       855.109          45.500    21902776.214    85951314.97108       819.498          51.400
G26  21495039.628   112957209.21408     -2541.400          48.650    21495042.381    88018615.46708     -1980.314          48.600    21495043.819    84351179.84108     -1897.716          53.900
G27  20608691.244   108299460.52608      1417.353          49.350    20608691.894    84389219.73708      1104.431          49.400    20608693.745    80873014.91009      1058.449          54.850
G31  25074477.244   131767150.15906     -3521.214          40.150    25074482.342   102675678.30206     -2743.819          40.500
R07  23449445.413   125526778.91605       907.753          32.650    23449454.393    97631967.79006       706.038          41.350    23449454.501    97631959.79306       706.038          41.750
R08  24054789.901   128812304.07305      3241.152          33.750    24054798.883   100187402.04306      2520.914          37.550    24054798.812   100187399.05306      2520.915          39.100
R13  20668956.600   110371054.99507     -3384.634          43.000
R14  19667302.111   104837822.72607      1122.953          47.400    19667307.329    81540546.20408       873.407          49.450    19667307.309    81540545.20908       873.407          50.100
R15  23118803.114   123539871.72706      4041.273          41.400    23118808.831    96086589.64606      3143.206          37.750    23118808.936    96086592.65306      3143.206          38.100
R17  23550445.347   126023192.83906      3444.340          39.400    23550452.575    98018059.62006      2678.935          41.200    23550452.715    98018061.62607      2678.935          42.200
R23  20969801.572   112174315.77307     -2925.254          43.000
R24  19858716.836   106193626.09608      1231.181          49.000    19858720.555    82595026.62708       957.586          49.800    19858720.634    82595032.63008       957.586          50.400
E02  25349694.382   133213560.67347      2219.300          45.750    25349700.523    99477689.85208      1657.344          50.200    25349696.637   108127903.90708      1801.401          48.650    25349696.218   102072740.85708      1700.511          49.600    25349698.342   100775205.66608      1678.916          52.700
E10  24403658.965   128242130.03048     -1503.000          49.400    24403664.311    95765270.46108     -1122.300          52.450    24403661.457   104092659.03409     -1219.923          54.100    24403660.397    98263474.97308     -1151.622          52.500    24403662.185    97014373.02509     -1136.962          55.250
E11  21825860.631   114695718.17047        19.907          46.100    21825862.736    85649430.95808        14.949          50.650    21825858.604    93097187.81208        16.193          52.900    21825858.681    87883751.80508        15.337          50.600    21825860.679    86766582.69308        15.120          53.400
E12  25877797.722   135988763.56346     -2444.638          40.100    25877801.963   101550068.52507     -1825.520          45.200    25877797.076   110380492.19607     -1984.274          46.300    25877797.721   104199196.71807     -1873.234          43.850    25877799.736   102874629.42907     -1849.328          47.300
E16  25501796.978   134012877.16948     -2359.715          49.700    25501804.377   100074596.76208     -1762.194          48.800    25501798.684   108776699.62408     -1915.337          49.150    25501800.324   102685206.76808     -1808.045          48.800    25501802.187   101379899.07708     -1785.198          51.500
E25  23247050.389   122164080.65748      -253.685          49.400    23247055.814    91226462.46408      -189.484          53.200    23247050.714    99159165.43409      -205.918          56.450    23247051.709    93606265.05108      -194.412          53.600    23247054.150    92416357.56409      -191.953          56.150
E36  25292715.235   132914175.66047      2435.164          47.850    25292723.185    99254148.25908      1818.410          48.750    25292718.195   107884897.29708      1976.503          51.450    25292719.388   101843377.52508      1865.892          48.950    25292721.887   100548767.70708      1842.131          51.700
C06  39891741.748   209632540.41505      -637.639          34.050    39891744.375   207726801.78706      -631.993          39.000    39891748.157   156543816.90107      -476.249          43.000    39891743.273   168795043.89206      -513.535          38.250
C09                                                                  38844875.798   202275532.64606       151.142          38.550                                                                    38844880.270   164365479.81106       122.799          41.900    38844880.973   156412308.39007       116.967          42.850
C12                                                                  26347211.125   137196824.69915      -555.767          30.650    26347236.288   103392220.53307      -418.421          43.300    26347215.225   111483701.52906      -451.147          41.050
C19  26084211.334   137073463.56606       744.349          37.800    26084212.218   135827374.74506       737.696          37.350    26084220.766   102360137.72307       555.938          44.800    26084212.449   110370905.29706       599.378          39.950
C20  27448607.204   144243405.37005     -1336.944          31.550    27448609.032   142932103.21705     -1324.921          32.850    27448614.414   107714272.01906      -998.191          39.600    27448608.857   116144046.66406     -1076.398          37.000
C22  25829323.421   135734056.32006      2657.937          39.100    25829324.093   134500105.27407      2633.850          42.200    25829332.323   101359894.66507      1984.942          43.600    25829326.716   109292384.07206      2140.426          38.500
C24  22670794.559   119135835.33507     -1878.203          47.800    22670795.082   118052782.85308     -1861.105          48.300    22670796.665    88965075.25708     -1402.498          53.050    22670795.083    95927550.58808     -1512.270          51.000
C25  23358474.041   122749625.00307      1514.861          45.300    23358474.971   121633725.01607      1501.148          45.700    23358477.560    91663702.10308      1131.252          49.100    23358475.854    98837375.56308      1219.876          48.450
C26  25510366.692   134057831.95206     -3447.419          41.600    25510366.973   132839127.48307     -3416.202          43.350    25510377.078   100108129.63407     -2574.190          42.150    25510373.595   107942673.50207     -2775.895          42.050
C31  21514175.769   113057805.10307      -845.430          46.950    21514177.271   112030015.82307      -837.714          47.750    21514181.390    84426331.40309      -631.230          54.250    21514178.445    91033585.37408      -680.648          52.550
C34  22651056.867   119032160.63207      1832.488          45.250    22651056.939   117950050.10407      1815.879          46.250    22651061.866    88887714.21008      1368.556          50.150    22651059.746    95844111.84308      1475.611          48.950
C35  24753918.580   130082714.67907     -2625.505          42.000    24753918.245   128900149.11606     -2601.550          40.050    24753925.165    97139710.93607     -1960.520          45.600    24753922.142   104741937.06207     -2113.913          44.350
S21  37771472.853                           5.679          45.400
S36  37795308.034   198615671.78607         1.762          46.800
> 2026 04 30 10 02 30.0000000  0 39
G02  24430000.934   128380525.36906      3409.720          40.500    24430003.368   100036790.86006      2656.930          39.350
G07  25142035.922   132122286.26606      1834.709          39.950    25142036.529   102952435.41606      1429.643          40.300
G08  22660954.840   119084166.19207      2749.414          42.650    22660957.597    92792872.95107      2142.402          42.650    22660959.116    88926515.75808      2053.046          49.050
G10  23086974.168   121322953.51108      2845.313          48.550    23086978.393    94537418.05408      2217.130          48.550    23086979.578    90598379.59308      2124.756          49.000
G16  20058817.728   105409820.03307      -500.836          46.200    20058815.934    82137519.24807      -390.263          46.400
G18  22330184.607   117345944.50107     -2653.750          43.050    22330184.760    91438410.95107     -2067.861          43.150    22330191.532    87628513.97708     -1981.647          50.750
G23  21896555.282   115067257.93707      1078.863          47.200    21896555.978    89662851.81707       840.674          45.500    21896562.720    85926932.16108       805.658          51.250
G26  21509582.637   113033632.78908     -2554.062          48.550    21509585.351    88078166.23308     -1990.180          48.650    21509586.864    84408249.30808     -1907.273          53.700
G27  20600628.071   108257088.34208      1406.803          49.200    20600628.712    84356202.45008      1096.210          48.900    20600630.560    80841373.34909      1050.554          54.700
G31  25094569.962   131872735.74106     -3518.300          41.500    25094575.249   102757952.49207     -2741.545          42.050
R07  23444425.367   125499905.40805       883.736          35.100    23444434.463    97611066.20807       687.354          42.350    23444434.524    97611058.21307       687.355          42.850
R08  24036654.236   128715187.39106      3232.647          39.850    24036662.431   100111866.85206      2514.276          36.450    24036662.379   100111863.85105      2514.279          35.700
R13  20688017.705   110472840.15007     -3401.638          42.800
R14  19661051.289   104804502.14107      1097.673          47.400    19661056.416    81514630.18408       853.745          49.650    19661056.424    81514629.18708       853.746          50.200
R15  23096135.975   123418745.24806      4033.396          40.150    23096141.810    95992380.25106      3137.089          40.600    23096141.851    95992383.25606      3137.089          41.100
R17  23531150.786   125919944.42507      3438.147          42.200    23531158.314    97937755.34907      2674.117          43.550    23531158.334    97937757.35107      2674.117          44.250
R22  24240202.211   129395837.21016     -3717.950          40.050    24240209.160   100641234.11216     -2891.741          37.800    24240209.254   100641233.10616     -2891.742          37.800
R23  20986225.492   112262172.73307     -2932.171          43.950
R24  19851852.256   106156917.77108      1215.468          48.850    19851855.881    82566475.71508       945.364          49.950    19851855.948    82566481.71708       945.364          50.700
E02  25337037.380   133147047.61847      2214.315          45.800    25337043.528    99428021.03408      1653.609          49.950    25337039.500   108073916.04708      1797.391          48.600    25337039.250   102021776.32808      1696.745          49.600    25337041.315   100724888.99208      1675.162          52.650
E10  24412265.961   128287359.85048     -1512.823          49.250    24412271.277    95799045.96308     -1129.703          52.250    24412268.416   104129371.54409     -1227.967          54.100    24412267.361    98298131.57608     -1159.203          52.400    24412269.154    97048589.08009     -1144.468          55.150
E11  21825780.758   114695298.32847         7.338          45.950    21825782.852    85649117.43608         5.572          50.500    21825778.682    93096847.02508         6.028          52.900    21825778.793    87883430.10508         5.711          50.550    21825780.783    86766265.08108         5.622          53.350
E12  25891767.849   136062178.91046     -2450.458          38.500    25891772.802   101604891.54607     -1829.737          44.150    25891767.883   110440082.45807     -1988.851          45.450    25891768.538   104255449.90307     -1877.365          44.250    25891770.332   102930167.53207     -1853.569          47.050
E16  25515286.736   134083766.69047     -2366.703          47.800    25515294.075   100127533.57407     -1767.353          47.900    25515289.087   108834239.67308     -1921.039          50.450    25515290.443   102739524.54108     -1813.439          48.550    25515292.044   101433526.36508     -1790.376          51.000
E25  23248528.404   122171847.90748      -264.610          49.250    23248533.929    91232262.65908      -197.611          52.950    23248528.767    99165470.00309      -214.790          56.350    23248529.771    93612216.55808      -202.728          53.450    23248532.228    92422233.42009      -200.199          56.000
E36  25278835.847   132841239.41647      2426.707          47.700    25278843.995    99199682.94708      1812.213          48.800    25278838.870   107825695.84708      1969.802          51.100    25278839.776   101787491.36008      1859.534          48.950    25278842.451   100493591.96508      1835.864          51.700
C06  39895397.312   209651747.88406      -642.947          37.950    39895399.811   207745834.53306      -636.981          38.150    39895403.613   156558160.08607      -480.298          44.400    39895398.812   168810509.61606      -517.959          40.500
C09                                                                  38844021.554   202271085.03406       144.624          38.850                                                                    38844026.039   164361865.76806       117.651          41.750    38844026.905   156408869.20407       112.042          43.350
C12  26350454.010   138472570.31814      -575.729          28.250    26350455.485   137213711.39905      -571.724          33.800    26350479.412   103404946.43207      -430.291          43.750    26350458.153   111497423.36006      -464.111          40.400
C19  26080004.492   137051354.23506       728.912          37.350    26080005.712   135805466.35206       722.447          39.050    26080013.577   102343627.54607       544.322          44.550    26080005.637   110353102.98606       586.853          40.900
C22  25814161.415   135654380.24206      2653.137          38.650    25814162.262   134421153.57806      2628.893          40.900    25814170.352   101300396.63707      1981.190          42.000    25814163.791   109228229.51606      2136.110          39.800
C24  22681555.023   119192381.44907     -1892.211          47.800    22681555.452   118108814.91508     -1874.934          48.100    22681557.000    89007301.19408     -1412.937          52.800    22681555.445    95973081.18108     -1523.498          51.000
C25  23349866.391   122704391.75007      1500.065          45.100    23349867.421   121588902.97507      1486.559          45.800    23349870.000    91629924.02608      1120.263          48.750    23349868.310    98800953.99208      1207.890          48.300
C26  25530053.064   134161282.63007     -3449.703          42.000    25530053.179   132941637.67207     -3418.435          42.200    25530063.566   100185381.49607     -2576.184          44.200    25530059.353   108025971.28606     -2777.769          41.550
C31  21519024.313   113083284.39707      -853.747          46.750    21519025.883   112055263.48507      -846.035          47.700    21519029.945    84445358.13009      -637.576          54.000    21519026.990    91054101.16108      -687.518          52.300
C34  22640614.787   118977287.53107      1825.189          45.100    22640614.994   117895675.85807      1808.513          46.150    22640619.860    88846737.57608      1362.913          50.000    22640617.807    95799928.33508      1469.555          48.850
C35  24768909.506   130161494.27406     -2627.107          38.300    24768909.677   128978212.52007     -2603.312          43.150    24768916.519    97198539.72307     -1961.886          43.850    24768913.527   104805369.88007     -2115.410          42.400
S21  37771438.611                           5.723          45.250
S36  37795295.896   198615609.42307         1.335          46.750
> 2026 04 30 10 03  0.0000000  0 39
G02  24410550.001   128278308.86005      3404.558          35.100    24410552.022    99957141.56805      2652.912          35.850
G07  25131599.906   132067444.43106      1821.343          41.050    25131600.332   102909701.49506      1419.227          41.050
G08  22645273.010   119001757.89207      2744.268          42.700    22645275.782    92728658.74007      2138.392          42.200    22645277.469    88864977.14208      2049.357          49.350
G10  23070756.822   121237729.34908      2836.157          48.350    23070760.929    94471009.68608      2209.998          48.400    23070761.814    90534738.29708      2117.791          48.550
G16  20061727.719   105425111.97907      -518.856          46.450    20061725.907    82149435.03007      -404.304          46.250
G18  22345357.827   117425681.36907     -2662.160          44.850    22345358.582    91500543.47607     -2074.414          44.700    22345364.535    87688057.67708     -1988.052          51.350
G23  21890448.352   115035165.80407      1060.609          46.800    21890449.096    89637844.96907       826.448          45.350    21890455.654    85902967.27308       791.883          51.400
G26  21524199.586   113110445.17608     -2566.834          48.950    21524202.313    88138019.96608     -2000.133          49.000    21524203.929    84465609.11708     -1916.770          53.900
G27  20592625.662   108215035.41808      1396.613          49.300    20592626.300    84323433.94008      1088.270          49.400    20592628.173    80809970.19609      1042.829          54.800
G31  25114648.460   131978248.53406     -3515.463          39.200    25114653.427   102840170.00906     -2739.332          39.300
R07  23439538.810   125473741.00206       860.521          38.400    23439547.127    97590716.17707       669.298          42.400    23439547.093    97590708.17907       669.298          43.000
R08  24018569.389   128618343.58706      3223.879          37.800    24018577.644   100036544.08606      2507.474          39.400    24018577.468   100036541.07006      2507.468          40.350
R13  20707175.773   110575143.03107     -3418.564          42.650
R14  19654943.326   104771942.70707      1072.755          47.300    19654948.382    81489306.17208       834.365          49.400    19654948.364    81489305.17708       834.365          49.950
R15  23073514.020   123297860.54806      4025.414          41.750    23073519.938    95898358.87206      3130.880          41.200    23073519.929    95898361.87606      3130.880          41.500
R17  23511893.401   125816893.57106      3431.698          41.450    23511900.954    97857604.71307      2669.102          43.100    23511901.105    97857606.71807      2669.103          43.750
R23  21002690.910   112350249.07406     -2939.306          41.200
R24  19845077.587   106120690.23408      1199.706          48.800    19845081.143    82538298.75108       933.105          49.900    19845081.203    82538304.75308       933.104          50.550
E02  25324409.824   133080688.88947      2209.387          46.400    25324415.839    99378467.46008      1649.851          50.000    25324411.888   108020053.45308      1793.376          48.900    25324411.533   101970930.04508      1692.916          49.600    25324413.667   100674689.06408      1671.383          52.850
E10  24420929.757   128332888.21848     -1522.463          49.650    24420935.042    95833044.39208     -1136.951          52.400    24420932.223   104166326.36409     -1235.824          54.150    24420931.113    98333016.92208     -1166.681          52.600    24420932.931    97083030.96809     -1151.816          55.400
