     3.04           OBSERVATION DATA    M: MIXED            RINEX VERSION / TYPE
GR50 V4.90          SWISSTOPO           20260512 235943 UTC PGM / RUN BY / DATE
SNR is mapped to RINEX snr flag value [1-9]                 COMMENT
LX:     < 12dBHz -> 1; 12-17dBHz -> 2; 18-23dBHz -> 3       COMMENT
       24-29dBHz -> 4; 30-35dBHz -> 5; 36-41dBHz -> 6       COMMENT
       42-47dBHz -> 7; 48-53dBHz -> 8; >= 54dBHz -> 9       COMMENT
ZIM2                                                        MARKER NAME
14001M008                                                   MARKER NUMBER
GEODETIC                                                    MARKER TYPE
Leica GR50          SWISSTOPO                               OBSERVER / AGENCY
1873177             LEICA GR50          4.90/7.905          REC # / TYPE / VERS
60369               TRM59800.00     NONE                    ANT # / TYPE
  4331300.1600   567537.0810  4633133.5100                  APPROX POSITION XYZ
        0.0000        0.0000        0.0000                  ANTENNA: DELTA H/E/N
G   20 C1C L1C D1C S1C C1L L1L D1L S1L C2S L2S D2S S2S C2W  SYS / # / OBS TYPES
       L2W D2W S2W C5Q L5Q D5Q S5Q                          SYS / # / OBS TYPES
R   16 C1C L1C D1C S1C C2P L2P D2P S2P C2C L2C D2C S2C C3Q  SYS / # / OBS TYPES
       L3Q D3Q S3Q                                          SYS / # / OBS TYPES
E   20 C1C L1C D1C S1C C5Q L5Q D5Q S5Q C6B L6B D6B S6B C7Q  SYS / # / OBS TYPES
       L7Q D7Q S7Q C8Q L8Q D8Q S8Q                          SYS / # / OBS TYPES
C   24 C1P L1P D1P S1P C2I L2I D2I S2I C5P L5P D5P S5P C6I  SYS / # / OBS TYPES
       L6I D6I S6I C7D L7D D7D S7D C7I L7I D7I S7I          SYS / # / OBS TYPES
S    8 C1C L1C D1C S1C C5I L5I D5I S5I                      SYS / # / OBS TYPES
DBHZ                                                        SIGNAL STRENGTH UNIT
    30.000                                                  INTERVAL
  2026    05    13    00    00    0.0000000     GPS         TIME OF FIRST OBS
  2026    05    13    23    59   30.0000000     GPS         TIME OF LAST OBS
     0                                                      RCV CLOCK OFFS APPL
G L1C                                                       SYS / PHASE SHIFT
G L1L  0.25000                                              SYS / PHASE SHIFT
G L2S -0.25000                                              SYS / PHASE SHIFT
G L2W                                                       SYS / PHASE SHIFT
G L5Q -0.25000                                              SYS / PHASE SHIFT
R L1C                                                       SYS / PHASE SHIFT
R L2P  0.25000                                              SYS / PHASE SHIFT
R L2C                                                       SYS / PHASE SHIFT
R L3Q  0.25000                                              SYS / PHASE SHIFT
E L1C  0.50000                                              SYS / PHASE SHIFT
E L5Q -0.25000                                              SYS / PHASE SHIFT
E L6B                                                       SYS / PHASE SHIFT
E L7Q -0.25000                                              SYS / PHASE SHIFT
E L8Q -0.25000                                              SYS / PHASE SHIFT
C L1P  0.25000                                              SYS / PHASE SHIFT
C L2I                                                       SYS / PHASE SHIFT
C L5P  0.25000                                              SYS / PHASE SHIFT
C L6I                                                       SYS / PHASE SHIFT
C L7D                                                       SYS / PHASE SHIFT
C L7I                                                       SYS / PHASE SHIFT
S L1C                                                       SYS / PHASE SHIFT
S L5I                                                       SYS / PHASE SHIFT
 24 R01  1 R02 -4 R03  5 R04  6 R05  1 R06 -4 R07  5 R08  6 GLONASS SLOT / FRQ #
    R09 -2 R10 -7 R11  0 R12 -1 R13 -2 R14 -7 R15  0 R16 -1 GLONASS SLOT / FRQ #
    R17  4 R18 -3 R19  3 R20  2 R21  4 R22 -3 R23  3 R24  2 GLONASS SLOT / FRQ #
 C1C  -71.940 C1P  -71.940 C2C  -71.940 C2P  -71.940        GLONASS COD/PHS/BIS
    18    18  1929     7                                    LEAP SECONDS
                                                            END OF HEADER
> 2026 05 13 00 00  0.0000000  0 45
G05  24817828.909   130418582.44307     -3769.695          42.850                                                                    24817829.820   101624852.73106     -2937.421          36.650    24817829.720   101624877.70907     -2937.424          42.950
G10  25098122.866   131891528.31006      2629.440          39.400                                                                    25098124.031   102772630.32406      2048.916          40.700    25098124.828   102772632.32506      2048.917          39.050    25098123.038    98490428.48507      1963.703          45.900
G12  24644644.714   129508505.85107      3880.813          42.750                                                                    24644645.164   100915719.66006      3024.010          39.800    24644645.162   100915716.66407      3024.010          43.500
G13  24265341.366   127515229.72206      3648.886          41.500    24265341.017   127515279.70706      3649.076          41.750    24265343.052    99362521.75106      2843.283          39.750    24265343.444    99362535.74706      2843.284          37.650    24265345.129    95222431.67206      2724.885          41.750
G14  22248815.338   116918440.16707     -2605.036          47.850    22248815.125   116918449.17307     -2604.903          47.950    22248814.383    91105325.17107     -2029.898          47.550    22248814.613    91105345.17607     -2029.897          44.850    22248817.404    87309304.81508     -1945.283          50.300
G15  19922455.438   104693254.77309      -555.230          54.100                                                                    19922454.053    81579173.41208      -432.647          53.900    19922454.165    81579172.41309      -432.647          54.100
G17  22957813.794   120644174.81507      1064.040          46.650                                                                    22957813.809    94008470.95407       829.123          45.900    22957813.894    94008472.95307       829.123          46.800
G19  23598913.134   124013140.79607      2867.778          44.750                                                                                                                                    23598911.473    96633641.88307      2234.634          43.000
G20  20638033.639   108453683.49308     -1598.651          52.150    20638033.552   108453690.49308     -1598.706          52.100    20638033.414    84509407.55009     -1245.703          55.400    20638033.662    84509411.54708     -1245.703          51.900    20638036.039    80988203.98509     -1193.847          58.050
G22  21603142.519   113525364.81808     -2062.166          50.800                                                                                                                                    21603140.777    88461361.35407     -1606.883          47.000
G23  22573072.725   118622317.56007       694.900          47.000    22573072.616   118622324.56107       695.111          46.800    22573072.177    92432986.76308       541.480          48.800    22573072.553    92432986.76507       541.480          44.900    22573075.703    88581635.68808       519.001          51.800
G24  20958453.452   110137469.57508      2216.139          49.950                                                                    20958454.320    85821436.73508      1726.861          50.100    20958454.694    85821436.73408      1726.862          49.850    20958454.720    82245552.13609      1654.918          55.200
G30  24472441.810   128603657.21206     -2972.466          41.150                                                                    24472444.778   100210688.79506     -2316.210          41.050    24472444.790   100210714.79206     -2316.210          40.750    24472444.443    96035313.98807     -2219.676          46.350
R03  20893846.218   111846470.49908     -3485.102          51.100    20893848.075    86991735.55508     -2710.635          48.800    20893848.046    86991732.56008     -2710.635          49.200
R04  19148732.796   102540654.27808       290.006          53.550    19148733.883    79753861.78308       225.560          51.800    19148733.824    79753863.78208       225.560          52.450    19148725.347    76777354.01509       217.196          59.300
R05  21691663.442   115954408.22908      3668.451          48.050    21691665.528    90186783.38707      2853.241          46.250    21691665.802    90186788.39207      2853.241          47.000    21691656.640    86973253.53508      2751.638          49.400
R13  21340254.510   113955879.93907     -3314.692          44.950
R14  19260600.833   102669950.18809       394.689          54.750    19260604.228    79854452.27608       306.981          51.700    19260604.183    79854455.28208       306.981          52.550
R15  22032633.918   117735759.03608      3402.468          48.850    22032637.408    91572220.59307      2646.365          44.600    22032637.522    91572262.59707      2646.365          44.950
R21  24731230.532   132341795.57304     -2438.062          28.100    24731232.880   102932528.25904     -1896.266          28.800    24731232.589   102932528.28204     -1896.264          29.100
R22  23713425.431   126583873.98707       988.081          42.300    23713427.048    98454140.31805       768.510          35.750    23713427.139    98454137.30706       768.509          36.000    23713418.930    95079522.78007       742.062          42.800
E04  23808924.667   125116866.92049     -1257.023          54.900    23808925.993    93431498.47509      -938.650          54.500    23808924.238   101555893.98708     -1020.290          52.700    23808923.691    95868847.83209      -963.169          54.950    23808924.741    94650185.58409      -950.887          58.100
E05  27938459.222   146817599.40246      2754.630          40.050    27938463.923   109636536.43107      2057.099          42.800    27938458.960   119170126.53906      2235.931          38.100    27938460.506   112496610.94106      2110.772          40.700    27938462.402   111066570.62207      2083.931          45.300
E06  23315133.249   122521950.52349        72.746          55.150    23315135.830    91493731.10209        54.322          55.850    23315132.030    99449666.63709        59.091          54.000    23315133.908    93880510.75009        55.732          56.400    23315134.468    92687115.35809        55.045          59.450
E09  23993599.799   126087262.67549      1365.447          54.800    23993601.975    94156109.65309      1019.670          54.650    23993599.204   102343571.49808      1108.272          52.300    23993599.633    96612343.43209      1046.254          55.150    23993600.557    95384214.47609      1032.956          58.200
E16  28543922.041   149999322.57856      3125.429          38.900    28543928.418   112012517.19506      2333.970          40.300    28543924.441   121752706.64306      2536.667          38.300    28543926.758   114934568.63606      2394.762          41.250    28543926.910   113473531.34507      2364.422          44.000
E19  27006117.638   141918105.71446     -2756.815          36.300    27006120.961   105977921.02606     -2058.527          36.550                                                                    27006119.190   108742566.89606     -2112.401          38.100    27006120.117   107360257.91306     -2085.676          40.750
E21  27652335.295   145314080.42547     -2749.512          42.650    27652338.259   108513836.65807     -2053.002          42.200    27652336.230   117949762.53506     -2231.563          37.750    27652335.832   111344623.27007     -2106.565          42.250    27652336.815   109929231.39307     -2079.751          45.700
E23  23886864.413   125526400.29149      -721.991          54.950    23886866.846    93737312.25009      -539.123          54.100    23886863.861   101888334.21908      -586.055          52.100    23886864.927    96182615.47709      -553.248          54.750    23886865.556    94959955.79509      -546.211          57.850
E28  25255287.581   132717533.98648     -2210.978          51.700    25255290.782    99107271.11908     -1650.994          50.500    25255287.931   107725299.06207     -1794.653          47.700    25255288.478   101692706.00008     -1694.067          50.500    25255289.239   100400073.99308     -1672.551          53.900
E31  24338904.857   127901888.95248      2023.374          52.550    24338908.428    95511226.70108      1510.958          52.950    24338903.342   103816451.49208      1642.381          50.750    24338906.192    98002817.78908      1550.390          53.200    24338907.101    96757020.17809      1530.686          56.500
E34  28391979.418   149200859.29755     -1160.420          35.550    28391984.010   111416244.30806      -866.522          39.050    28391981.312   121104596.41705      -941.993          35.200    28391982.348   114322750.09006      -888.984          40.300    28391982.941   112869490.12407      -877.681          43.300
C08  39481624.520   207477351.73906       446.866          41.650    39481622.928   205591200.87307       442.818          42.400    39481625.462   154934409.50707       333.721          45.650    39481624.508   167059701.38906       359.833          41.900    39481623.751   158976154.30906       342.500          41.400
C14  24133808.906   126824044.41807      2283.354          45.950    24133808.550   125671103.50208      2262.527          48.800    24133828.460    94706366.92808      1704.997          48.900    24133800.047   102118044.04907      1838.394          46.750    24133826.887    97176955.14107      1749.527          45.250
C19  26690609.879   140260139.34306     -3593.621          40.900    26690609.389   138985052.23006     -3561.051          41.150    26690616.349   104739769.58307     -2683.644          42.350    26690611.127   112936765.19706     -2893.600          40.050    26690613.676   107472103.17406     -2753.367          38.150
C21  22821773.223   119929268.11008       995.992          51.700    22821771.796   118839001.15208       986.950          53.600    22821772.912    89557627.27709       743.810          54.650    22821769.784    96566434.26008       802.015          52.050    22821770.723    91893873.26708       763.172          50.650
C22  22495124.335   118212702.90008     -2250.274          51.700    22495122.695   117138083.96908     -2229.816          53.400    22495122.132    88275798.17408     -1680.381          53.700    22495120.259    95184310.66608     -1811.900          52.050    22495120.296    90578625.68508     -1724.250          50.850
C26  26817787.463   140928414.44406      3038.069          38.600    26817785.911   139647249.74506      3009.887          40.250    26817791.249   105238785.20506      2268.368          40.650    26817790.324   113474847.50406      2446.181          36.000    26817788.472   107984120.86006      2327.753          36.750
C27  26212822.438   137749318.84606       567.567          38.150    26212821.047   136497051.11006       562.669          40.350    26212823.787   102864764.49306       424.161          40.700    26212824.186   110915043.56406       457.302          37.650    26212823.256   105548173.24806       435.170          37.900
C30  26184246.025   137599151.38706      2416.500          38.600    26184245.521   136348240.83606      2394.476          40.300    26184251.912   102752634.94107      1804.374          43.050    26184249.956   110794143.58706      1945.684          38.650    26184249.907   105433132.69606      1851.246          38.850
C36  21942296.205   115307665.76208     -1321.183          52.900    21942295.240   114259424.11109     -1309.059          54.450    21942305.042    86106487.96309      -986.510          56.300    21942302.509    92845232.66608     -1063.693          53.450    21942302.269    88352646.06308     -1012.193          52.100
C39  22425539.760   117847035.93108      1465.090          52.800    22425537.273   116775759.29808      1451.808          53.650    22425533.484    88002688.49609      1094.095          55.900    22425532.696    94889857.78008      1179.722          52.750    22425531.151    90298404.11908      1122.655          52.000
C42  26253093.349   137960927.76006      3093.482          40.200    26253091.828   136706748.20306      3065.391          40.000    26253106.401   103022849.28207      2310.068          44.000    26253103.299   111085478.99406      2490.794          39.100    26253104.360   105710367.68906      2370.244          39.650
S21  38211352.068   200801823.70107        -1.557          46.900
S36  38097223.951   200202287.44307         1.243          46.550    38097195.396   149501805.78907          .874          46.450
> 2026 05 13 00 00 30.0000000  0 45
G05  24839348.934   130531671.28506     -3769.142          40.750                                                                    24839350.363   101712973.72306     -2937.000          41.650    24839350.436   101712998.71806     -2936.999          41.250
G10  25083148.750   131812839.44806      2616.885          39.100                                                                    25083149.692   102711314.39206      2039.131          39.700    25083150.517   102711316.37906      2039.131          39.600    25083149.041    98431667.44407      1954.040          46.000
G12  24622499.274   129392133.23206      3877.750          40.300                                                                    24622500.377   100825039.89407      3021.634          42.850    24622500.425   100825036.90306      3021.634          40.250
G13  24244523.035   127405830.17106      3644.474          41.750    24244522.971   127405880.16607      3644.796          42.050    24244524.673    99277275.41107      2839.854          44.300    24244524.997    99277289.41606      2839.854          41.250    24244527.576    95140737.35607      2721.702          47.300
G14  22263717.667   116996752.43207     -2615.360          47.550    22263717.482   116996761.44007     -2615.305          47.850    22263716.658    91166347.72207     -2037.943          47.850    22263716.893    91166367.71907     -2037.943          44.700    22263720.076    87367784.75108     -1953.057          50.600
G15  19925686.395   104710233.57509      -576.103          54.400                                                                    19925685.034    81592403.64009      -448.911          54.150    19925685.126    81592402.63809      -448.912          54.400
G17  22951789.759   120612518.27507      1046.831          46.500                                                                    22951789.796    93983803.55207       815.714          45.700    22951789.913    93983805.54807       815.714          46.700
G19  23582563.739   123927224.35907      2860.426          45.250                                                                                                                                    23582561.953    96566694.05207      2228.904          42.300
G20  20647207.913   108501894.39308     -1614.819          52.300    20647207.828   108501901.39108     -1614.838          52.400    20647207.622    84546974.47609     -1258.301          55.250    20647207.853    84546978.47308     -1258.301          51.900    20647210.259    81024205.62009     -1205.918          57.800
G22  21614955.056   113587440.20008     -2075.763          51.400                                                                                                                                    21614953.279    88509731.78407     -1617.477          46.550
G23  22569165.748   118601786.37807       674.178          47.200    22569165.709   118601793.36507       674.455          47.150    22569165.133    92416988.44608       525.335          48.450    22569165.444    92416988.44307       525.333          45.300    22569169.030    88566303.97008       503.473          51.750
G24  20945834.242   110071155.10308      2205.444          50.300                                                                    20945835.158    85769763.13508      1718.528          50.350    20945835.476    85769763.13908      1718.528          50.100    20945835.537    82196031.61009      1646.840          55.200
G30  24489419.053   128692872.36106     -2974.944          41.750                                                                    24489421.933   100280207.06806     -2318.137          39.350    24489421.945   100280233.06807     -2318.138          42.100    24489421.968    96101935.64207     -2221.507          46.900
R03  20913425.133   111951277.68508     -3501.445          51.350    20913427.107    87073252.21908     -2723.347          48.850    20913427.053    87073249.22508     -2723.347          49.200
R04  19147181.425   102532346.77108       264.324          53.450    19147182.613    79747400.37808       205.585          51.900    19147182.501    79747402.37908       205.585          52.600    19147173.981    76771133.76309       197.827          59.200
R05  21671109.477   115844534.52207      3657.024          47.800    21671111.473    90101326.08907      2844.353          46.150    21671111.719    90101331.09507      2844.352          46.750    21671102.315    86890841.21508      2742.837          49.550
R13  21358900.317   114055446.89307     -3322.524          44.900
R14  19258436.016   102658410.68609       375.259          54.700    19258439.427    79845477.11908       291.869          51.700    19258439.427    79845480.12508       291.869          52.500
R15  22013563.703   117633852.92608      3391.774          48.850    22013567.098    91492960.33807      2638.050          45.750    22013567.078    91493002.34207      2638.050          46.650
R21  24744952.475   132415223.23305     -2456.804          30.600    24744954.743   102989638.58504     -1910.842          27.150    24744954.307   102989638.58804     -1910.842          26.650
R22  23707940.893   126554596.12007       964.285          42.450    23707942.164    98431368.67605       749.997          35.600    23707942.363    98431365.66605       749.997          35.650    23707934.391    95057531.65207       724.374          42.100
E04  23816129.790   125154730.16549     -1266.745          55.200    23816131.159    93459772.96509      -945.946          54.500    23816129.469   101586627.12908     -1028.227          52.650    23816128.807    95897859.92009      -970.665          55.050    23816129.877    94678828.87309      -958.300          58.000
E05  27922734.810   146734967.21046      2754.641          40.250    27922739.608   109574830.65406      2056.978          41.300    27922734.261   119103055.01006      2235.754          38.050    27922736.329   112433295.43507      2110.619          42.550    27922737.733   111004059.97207      2083.820          45.200
E06  23314748.807   122519930.24649        62.469          55.300    23314751.432    91492222.44709        46.645          55.700    23314747.613    99448026.80109        50.688          54.000    23314749.447    93878962.74309        47.862          56.450    23314750.030    92685587.02909        47.227          59.300
E09  23985829.257   126046428.16849      1357.343          55.100    23985831.590    94125616.36309      1013.571          54.600    23985828.838   102310426.61308      1101.677          52.400    23985829.285    96581054.66609      1039.966          55.250    23985829.994    95353323.44809      1026.785          58.100
E16  28526084.380   149905585.03746      3124.418          40.200    28526090.636   111942518.68106      2333.014          40.500    28526086.290   121676621.17006      2535.904          37.350    28526088.847   114862744.02506      2393.956          41.050    28526089.126   113402619.79407      2363.417          44.000
E19  27021867.811   142000872.98456     -2759.813          37.150    27021871.147   106039727.74906     -2061.454          36.750                                                                    27021869.263   108805985.95306     -2115.060          37.750    27021870.133   107422870.77906     -2088.245          40.750
E21  27668043.947   145396630.17247     -2753.626          42.850    27668047.002   108575480.93107     -2056.117          42.100    27668045.139   118016767.19206     -2235.043          37.300    27668044.568   111407875.66507     -2109.819          42.050    27668045.578   109991679.72607     -2082.915          45.550
E23  23891024.086   125548259.45149      -734.804          55.300    23891026.641    93753635.65209      -548.691          54.000    23891023.455   101906077.04308      -596.428          52.200    23891024.553    96199364.70309      -563.017          54.800    23891025.186    94976492.11009      -555.869          57.650
E28  25267930.698   132783973.83648     -2217.853          51.750    25267933.841    99156885.28008     -1656.236          50.200    25267931.110   107779227.49207     -1800.230          47.700    25267931.669   101743614.44608     -1699.414          50.650    25267932.358   100450335.29408     -1677.813          53.650
E31  24327385.352   127841353.69048      2012.748          52.800    24327388.896    95466021.82108      1503.010          52.900    24327383.973   103767315.74708      1633.741          50.800    24327386.533    97956433.64708      1542.275          53.250    24327387.589    96711225.66609      1522.641          56.350
E34  28398643.102   149235876.70955     -1173.263          35.650    28398647.608   111442393.75006      -876.309          39.600    28398644.489   121133023.74215      -952.533          35.250    28398646.002   114349581.70006      -899.263          40.200    28398646.519   112895980.66007      -887.844          43.150
C08  39479092.137   207464045.18706       440.951          41.600    39479091.186   205578015.30807       436.670          43.150    39479093.438   154924472.80807       329.096          45.600    39479092.219   167048987.02807       354.841          42.200    39479091.614   158965958.39206       337.660          41.350
C14  24120810.160   126755735.18407      2271.269          45.950    24120809.741   125603415.24608      2250.580          48.400    24120829.403    94655356.79208      1695.973          48.750    24120801.236   102063041.82007      1828.728          47.350    24120827.857    97124614.31807      1740.195          45.100
C19  26711130.521   140367975.25706     -3594.730          38.550    26711129.945   139091907.86506     -3561.974          41.000    26711137.285   104820296.25107     -2684.437          43.100    26711132.105   113023594.02006     -2894.550          41.500    26711134.376   107554730.62306     -2754.576          38.250
C21  22816135.366   119899640.95908       979.521          52.200    22816133.933   118809643.33508       970.703          53.700    22816134.927    89535503.10809       731.474          54.600    22816131.911    96542578.62808       788.736          52.150    22816132.815    91871171.93908       750.584          50.750
C22  22508010.913   118280422.34308     -2263.877          52.000    22508009.341   117205187.77508     -2243.208          53.350    22508008.890    88326367.87008     -1690.566          53.800    22508006.854    95238837.99608     -1822.873          52.150    22508006.844    90630514.59208     -1734.670          51.000
C26  26800454.126   140837327.05106      3036.040          37.200    26800452.180   139556990.44206      3007.556          39.700    26800457.921   105170765.38906      2266.743          39.350    26800456.489   113401504.36005      2443.997          34.300
C27  26209625.142   137732517.66006       552.741          38.050    26209623.652   136480402.67506       547.431          40.700    26209626.953   102852218.23606       412.554          39.600    26209626.620   110901515.39106       444.941          38.600    26209625.337   105535299.65406       423.274          36.250
C30  26170471.685   137526766.25306      2409.420          40.350    26170470.725   136276513.69906      2388.449          40.900    26170477.573   102698581.12407      1799.662          43.400    26170475.893   110735859.46406      1940.489          40.050    26170474.708   105377668.76206      1846.546          37.200
C36  21949866.624   115347448.56708     -1330.646          53.200    21949865.583   114298845.26209     -1318.540          54.450    21949875.467    86136195.90209      -993.709          56.250    21949872.975    92877265.57808     -1071.449          53.600    21949872.633    88383128.99908     -1019.649          52.200
C39  22417207.792   117803251.17508      1454.410          52.950    22417205.175   116732372.59408      1441.164          53.650    22417201.435    87969992.12009      1086.053          55.750    22417200.613    94854602.55008      1171.051          52.800    22417199.186    90264854.79108      1114.384          52.100
C42  26235452.580   137868225.31906      3087.220          40.250    26235451.135   136614888.48706      3059.103          41.750    26235465.644   102953623.48907      2305.361          43.950    26235462.322   111010835.48706      2485.890          38.850    26235463.509   105639335.95706      2365.485          39.700
S21  38211362.441   200801883.25007        -1.889          47.150
S36  38097217.179   200202254.32007         1.291          46.900    38097191.086   149501789.14607          .644          46.400
> 2026 05 13 00 01  0.0000000  0 45
G05  24860864.913   130644737.33407     -3768.554          44.250                                                                    24860866.726   101801076.93106     -2936.544          41.900    24860866.859   101801101.93007     -2936.542          44.200
G10  25068246.597   131734529.45006      2603.801          39.900                                                                    25068247.672   102650293.67706      2028.936          40.550    25068248.422   102650295.66506      2028.936          39.850    25068246.542    98373189.24107      1944.442          45.100
G12  24600371.666   129275852.02607      3874.540          42.800                                                                    24600372.848   100734431.30506      3019.127          41.650    24600372.931   100734428.31007      3019.126          42.400
G13  24223728.650   127296553.13507      3640.432          42.850    24223728.611   127296603.13107      3640.477          43.050    24223730.420    99192124.54707      2836.703          44.750    24223730.699    99192138.53806      2836.702          41.350    24223733.383    95059134.48407      2718.442          45.350
G14  22278676.682   117075363.16907     -2625.156          47.350    22278676.609   117075372.17707     -2625.315          47.550    22278675.885    91227602.83007     -2045.575          47.900    22278676.130    91227622.83207     -2045.576          44.500    22278679.417    87426487.56908     -1960.552          50.100
G15  19929035.032   104727830.96209      -596.987          54.050                                                                    19929033.793    81606115.87809      -465.185          54.350    19929033.885    81606114.87808      -465.185          53.950
G17  22945862.687   120581371.27807      1029.828          46.900                                                                    22945862.592    93959533.19507       802.464          45.450    22945862.698    93959535.19507       802.464          46.850
G19  23566255.706   123841525.32707      2852.807          45.550                                                                                                                                    23566253.986    96499915.63607      2222.968          42.750
G20  20656472.127   108550577.94208     -1630.769          52.400    20656472.057   108550584.94408     -1630.827          52.300    20656471.779    84584909.69909     -1270.729          55.350    20656472.018    84584913.69508     -1270.729          51.850    20656474.361    81060560.20509     -1217.791          57.500
G22  21626842.935   113649911.38808     -2089.044          51.100                                                                                                                                    21626841.117    88558410.63107     -1627.826          46.350
G23  22565375.210   118581866.82207       653.736          47.250    22565375.170   118581873.82107       653.633          47.200    22565374.540    92401466.70908       509.406          48.350    22565374.795    92401466.71507       509.406          44.900    22565378.445    88551428.97808       488.124          51.700
G24  20933274.967   110005155.81408      2194.657          50.400                                                                    20933275.950    85718335.13808      1710.123          50.100    20933276.225    85718335.13708      1710.123          50.600    20933276.331    82146746.44909      1638.833          55.100
G30  24506407.425   128782146.81706     -2977.145          40.650                                                                    24506410.126   100349771.57506     -2319.851          38.650    24506410.095   100349797.57006     -2319.853          40.650    24506410.348    96168601.56807     -2222.984          45.400
R03  20933093.121   112056561.20308     -3517.482          51.050    20933094.872    87155139.38308     -2735.819          48.700    20933094.859    87155136.38708     -2735.819          48.800
R04  19145772.565   102524802.21808       238.618          53.300    19145773.758    79741532.38408       185.592          52.050    19145773.650    79741534.38508       185.592          52.700    19145765.144    76765484.77109       178.686          59.200
R05  21650618.835   115735001.40008      3645.205          48.100    21650620.909    90016133.69407      2835.160          46.600    21650621.181    90016138.70207      2835.161          47.050    21650612.103    86808684.37208      2734.223          50.000
R13  21377586.782   114155230.40307     -3329.812          44.850
R14  19256378.647   102647443.72109       355.948          54.800    19256381.975    79836947.27108       276.850          51.800    19256382.019    79836950.27608       276.850          52.700
R15  21994551.363   117532256.93208      3381.280          49.000    21994555.146    91413941.30307      2629.887          46.100    21994555.119    91413983.30607      2629.887          46.800
R21  24758774.597   132489210.00415     -2474.767          33.400    24758775.642   103047157.08214     -1924.823          27.700    24758778.613   103047167.08614     -1924.823          28.100
R22  23702586.583   126526015.05107       940.839          42.100    23702588.117    98409138.95706       731.767          37.000    23702588.226    98409135.94806       731.767          37.350    23702580.175    95036063.87906       706.759          41.000
E04  23823388.518   125192874.77449     -1276.277          55.250    23823389.957    93488257.56009      -953.063          54.400    23823388.186   101617588.65208     -1035.943          52.300    23823387.443    95927087.59509      -977.918          55.150    23823388.568    94707685.00809      -965.478          58.000
E05  27907010.502   146652335.39346      2754.351          41.350    27907015.390   109513125.12107      2056.836          42.950    27907009.994   119035983.74406      2235.771          37.200    27907012.244   112369980.22006      2110.385          41.900    27907013.643   110941549.60307      2083.654          45.750
E06  23314421.489   122518210.21149        52.206          55.250    23314424.129    91490938.00209        38.997          55.600    23314420.287    99446630.66708        42.373          53.700    23314422.100    93877644.78909        40.003          56.650    23314422.728    92684285.82909        39.489          59.300
E09  23978103.107   126005827.01149      1349.360          54.900    23978105.518    94095297.32609      1007.646          54.450    23978102.804   102277471.13308      1095.228          52.300    23978103.250    96549944.69109      1033.941          55.450    23978103.844    95322608.94109      1020.806          58.150
E16  28508250.283   149811865.50646      3123.587          39.550    28508256.084   111872533.58506      2332.593          40.800    28508251.591   121600550.29406      2535.416          37.550    28508254.068   114790933.22006      2393.333          41.000    28508254.741   113331721.83507      2362.979          44.200
E19  27037634.492   142083726.31045     -2763.202          35.950    27037637.776   106101598.66006     -2063.483          36.800                                                                    27037635.666   108869470.90506     -2117.209          38.050    27037636.670   107485548.71206     -2090.337          40.600
E21  27683774.912   145479297.45546     -2757.581          41.900    27683778.072   108637212.98606     -2059.277          41.550    27683776.289   118083867.26306     -2238.455          37.250    27683775.657   111471218.12207     -2112.890          42.650    27683776.752   110054216.98507     -2086.117          45.350
E23  23895254.510   125570490.55249      -747.357          54.950    23895257.134    93770236.80208      -558.085          53.800    23895253.937   101924121.77208      -606.644          52.000    23895254.866    96216398.92609      -572.649          54.900    23895255.615    94993309.79609      -565.352          57.600
E28  25280611.456   132850611.98248     -2224.704          51.800    25280614.605    99206647.50608     -1661.385          50.100    25280611.969   107833316.87107     -1805.748          47.350    25280612.581   101794674.81008     -1704.598          50.850    25280613.174   100500746.59208     -1682.998          53.700
E31  24315924.284   127781125.54448      2002.356          52.750    24315927.884    95421046.28308      1495.265          52.900    24315923.026   103718429.28208      1625.275          50.550    24315925.465    97910284.83108      1534.306          53.600    24315926.509    96665663.49009      1514.769          56.450
E34  28405379.746   149271277.60956     -1186.389          36.800    28405384.180   111468829.47806      -886.122          39.350    28405381.514   121161758.21505      -963.057          35.100    28405382.394   114376707.03806      -909.127          40.550    28405383.151   112922761.19607      -897.610          43.050
C08  39476593.688   207450916.57206       434.509          41.900    39476593.293   205565006.03407       430.627          43.500    39476595.243   154914668.96607       324.544          45.350    39476593.766   167038415.93607       349.749          42.350    39476593.162   158955898.79206       333.074          41.300
C14  24107878.424   126687778.32707      2259.359          46.150    24107878.020   125536076.18907      2238.790          47.550    24107897.967    94604609.83208      1687.059          49.050    24107869.239   102008323.32107      1819.148          47.150    24107896.263    97072543.49607      1731.098          46.350
C19  26731654.596   140475830.32206     -3595.200          39.600    26731654.291   139198782.43606     -3563.001          40.900    26731661.754   104900837.24206     -2685.143          41.500    26731656.433   113110438.25606     -2895.138          39.850    26731658.669   107637372.66306     -2755.028          39.050
C21  22810589.848   119870499.03408       963.179          52.200    22810588.418   118780766.34308       954.388          53.550    22810589.390    89513741.27609       719.254          54.400    22810586.330    96519113.69908       775.573          52.200    22810587.300    91848842.41108       738.065          50.900
C22  22520973.135   118348539.09608     -2277.322          52.100    22520971.522   117272685.28608     -2256.563          53.250    22520971.226    88377234.24808     -1700.544          53.650    22520969.039    95293685.23808     -1833.676          52.100    22520969.041    90682707.92608     -1744.901          51.250
C26  26783133.547   140746306.55005      3032.535          35.150    26783131.299   139466797.38206      3004.942          37.150    26783137.650   105102795.56506      2264.727          37.550    26783135.236   113328215.10506      2442.006          38.100
C27  26206514.281   137716170.10206       537.158          38.000    26206513.157   136464203.71606       532.396          40.150    26206516.311   102840010.66106       401.273          39.800    26206515.522   110888352.41106       432.536          38.050    26206514.013   105522773.60306       411.549          36.750
C30  26156732.111   137454562.91606      2403.730          39.700    26156730.842   136204966.77206      2381.812          41.700    26156737.931   102644663.10807      1794.940          42.950    26156736.543   110677721.75906      1935.384          40.150    26156734.326   105322344.16206      1841.710          36.900
C36  21957490.026   115387509.65508     -1340.115          53.100    21957488.912   114338542.15709     -1327.926          54.400    21957498.772    86166111.64409     -1000.732          56.050    21957496.391    92909522.55308     -1079.055          53.550    21957496.019    88413825.15008     -1026.840          52.400
C39  22408935.206   117759778.74908      1443.799          52.950    22408932.561   116689295.37908      1430.585          53.700    22408928.746    87937528.96709      1078.130          55.650    22408927.966    94819598.79708      1162.483          52.850    22408926.716    90231544.77308      1106.273          52.350
C42  26217845.532   137775700.42206      3081.089          40.100    26217844.390   136523204.74006      3053.229          41.800    26217858.576   102884530.28607      2300.832          43.950    26217855.261   110936334.98206      2480.988          39.750    26217856.467   105568440.32206      2360.822          39.400
S21  38211372.473   200801938.45207        -1.938          47.050
S36  38097210.500   200202218.68607         1.088          46.650    38097185.119   149501768.07007          .675          46.150
> 2026 05 13 00 01 30.0000000  0 44
G05  24882377.119   130757782.53706     -3767.916          41.000                                                                    24882378.732   101889164.02406     -2936.039          36.800    24882378.884   101889189.02806     -2936.036          41.250
G10  25053418.212   131656605.96806      2591.328          39.850                                                                    25053419.544   102589574.16506      2019.220          40.250    25053420.203   102589576.14506      2019.218          39.050    25053418.252    98314999.70307      1934.694          46.000
G12  24578262.776   129159668.96606      3871.085          41.400                                                                    24578263.743   100643899.19306      3016.434          40.300    24578263.864   100643896.19406      3016.434          41.350
G13  24202958.025   127187405.46306      3636.065          40.050    24202958.259   127187455.47706      3635.922          40.250    24202960.414    99107074.54407      2833.302          42.950    24202960.683    99107088.54106      2833.302          38.650    24202962.379    94977628.17307      2715.260          43.650
G14  22293693.122   117154275.46207     -2635.545          47.050    22293693.028   117154284.46407     -2635.446          47.200    22293692.573    91289092.92108     -2053.672          48.100    22293692.831    91289112.92307     -2053.672          45.300    22293696.000    87485415.56908     -1968.102          50.400
G15  19932502.343   104746051.94208      -617.808          53.750                                                                    19932501.207    81620314.03009      -481.409          54.050    19932501.294    81620313.03408      -481.409          53.850
G17  22940033.941   120550740.60607      1012.206          46.400                                                                    22940033.635    93935665.16207       788.733          45.650    22940033.787    93935667.16207       788.733          46.250
G19  23549990.571   123756051.62807      2845.298          45.250                                                                                                                                    23549988.883    96433312.80507      2217.117          42.800
G20  20665827.115   108599738.71808     -1646.664          52.050    20665827.084   108599745.72208     -1646.674          52.050    20665826.798    84623216.78009     -1283.116          55.200    20665827.027    84623220.77908     -1283.116          51.900    20665829.285    81097271.16409     -1229.705          57.650
G22  21638806.730   113712781.48708     -2102.387          50.750                                                                                                                                    21638804.842    88607400.32507     -1638.223          46.950
G23  22561702.175   118562564.73107       632.956          46.700    22561702.141   118562571.72607       633.023          46.800    22561701.434    92386426.12608       493.213          48.250    22561701.716    92386426.12207       493.213          45.200    22561705.458    88537015.08708       472.659          51.700
G24  20920776.899   109939478.12908      2183.778          50.250                                                                    20920777.857    85667157.74808      1701.647          50.150    20920778.161    85667157.74808      1701.647          50.350    20920778.238    82097701.45209      1630.737          55.150
G30  24523407.688   128871485.31506     -2979.358          37.850                                                                    24523410.449   100419385.98006     -2321.581          39.050    24523410.437   100419411.98206     -2321.579          37.750    24523410.145    96235315.36207     -2224.654          43.750
R03  20952850.375   112162323.24308     -3533.383          51.250    20952852.081    87237398.73308     -2748.187          48.650    20952852.060    87237395.73908     -2748.187          49.100
R04  19144507.386   102518026.99108       212.934          53.550    19144508.567    79736262.76008       165.615          51.950    19144508.425    79736264.75808       165.616          52.550    19144499.979    76760411.81809       159.401          59.350
R05  21630193.762   115625818.27307      3633.538          47.850    21630196.051    89931213.51807      2826.086          46.400    21630196.223    89931218.52007      2826.086          47.250    21630186.874    86726790.02608      2725.377          49.550
R13  21396314.051   114255232.63307     -3337.176          44.750
R14  19254429.621   102637053.94609       336.665          54.650    19254432.877    79828866.34308       261.851          51.700    19254432.894    79828869.34908       261.851          52.550
R15  21975598.295   117430978.49408      3370.690          48.700    21975602.110    91335169.26207      2621.650          44.700    21975602.207    91335211.26507      2621.650          45.050
R22  23697364.140   126498137.71306       917.472          41.750    23697366.091    98387456.58406       713.591          36.750    23697366.244    98387453.58406       713.592          36.900    23697357.229    95015124.63906       689.174          41.600
E04  23830701.787   125231306.04749     -1285.938          54.800    23830703.295    93516956.22909      -960.269          54.450    23830701.441   101648782.86108     -1043.746          52.300    23830700.657    95956534.92609      -985.302          55.100    23830701.822    94736758.01009      -972.790          58.100
E05  27891287.489   146569710.06646      2753.973          39.550    27891292.560   109451424.50607      2056.515          42.350    27891286.826   118968917.81306      2235.370          38.700    27891289.273   112306669.96507      2110.222          42.250    27891290.305   110879044.16707      2083.341          45.650
E06  23314152.440   122516796.35649        41.893          55.000    23314155.048    91489882.19909        31.291          55.650    23314151.186    99445483.05708        33.993          53.700    23314153.039    93876561.44309        32.102          56.600    23314153.687    92683216.25409        31.691          59.350
E09  23970422.566   125965465.59649      1341.306          54.700    23970425.005    94065157.31909      1001.583          54.550    23970422.381   102244710.24808      1088.699          52.250    23970422.755    96519018.42409      1027.714          55.350    23970423.322    95292075.80209      1014.667          58.250
E16  28490420.793   149718170.50246      3122.921          38.350    28490426.151   111802566.86506      2331.852          40.150    28490422.013   121524499.36706      2534.727          37.950    28490424.087   114719141.22006      2392.778          40.900    28490424.846   113260842.48207      2362.229          43.900
E19  27053418.188   142166672.51255     -2766.368          35.650    27053421.550   106163537.42906     -2065.837          37.150                                                                    27053419.438   108933025.49706     -2119.764          37.750    27053420.514   107548295.39706     -2092.805          40.600
E21  27699528.940   145562085.97946     -2761.803          41.750    27699532.205   108699035.60706     -2062.499          41.000    27699530.286   118151065.73706     -2241.420          37.200    27699530.065   111534653.48107     -2116.075          42.850    27699530.879   110116845.98207     -2089.309          45.300
E23  23899556.527   125593097.90449      -759.918          54.800    23899559.153    93787118.92408      -567.457          53.900    23899556.064   101942471.89908      -616.831          52.000    23899556.879    96233721.44909      -582.281          54.900    23899557.640    95010412.11609      -574.874          57.750
E28  25293330.922   132917453.24748     -2231.573          51.400    25293334.144    99256561.40708     -1666.395          50.200    25293331.430   107887571.12407     -1811.249          47.200    25293332.137   101845890.82408     -1709.880          50.700    25293332.623   100551311.54808     -1688.150          53.800
E31  24304522.822   127721210.67048      1991.950          52.650    24304526.506    95376304.69308      1487.384          52.950    24304521.689   103669797.10208      1616.745          50.600    24304524.149    97864376.05908      1526.267          53.700    24304525.054    96620338.31009      1506.835          56.700
E34  28412190.087   149307066.92356     -1199.652          36.850    28412194.494   111495554.50106      -895.819          41.100    28412190.803   121190807.12605      -973.622          35.650    28412192.543   114404129.20306      -919.158          40.550    28412193.152   112949834.78407      -907.451          44.300
C08  39474130.165   207437971.10407       428.561          42.050    39474130.215   205552178.27007       424.552          43.350    39474131.946   154905001.91007       319.894          45.450    39474130.198   167027992.30307       345.016          42.350    39474129.539   158945979.54906       328.324          41.200
C14  24095015.109   126620181.15107      2247.284          45.900    24095014.660   125469093.54208      2226.664          48.100    24095034.314    94554131.43608      1677.975          48.800    24095006.161   101953894.45307      1809.409          47.200    24095033.280    97020748.28507      1721.845          45.700
C19  26752183.159   140583707.86106     -3596.338          40.050    26752182.789   139305679.26406     -3563.658          41.450    26752189.956   104981395.09906     -2685.671          40.650    26752184.812   113197300.63206     -2895.934          40.300    26752186.895   107720032.00605     -2755.558          35.700
C21  22805137.866   119841848.76808       946.783          51.700    22805136.439   118752376.53908       938.208          53.500    22805137.475    89492346.60309       706.979          54.600    22805134.297    96496044.66608       762.289          52.200    22805135.284    91826889.62108       725.400          50.850
C22  22534011.626   118417056.90508     -2290.728          51.550    22534010.091   117340580.20808     -2269.826          53.350    22534009.711    88428400.13108     -1710.601          53.650    22534007.574    95348855.40908     -1844.431          52.200    22534007.585    90735208.57108     -1755.214          51.200
C26  26765826.569   140655358.96306      3030.017          38.150    26765823.975   139376676.55406      3002.579          38.350    26765830.895   105034880.05706      2262.960          39.200    26765828.609   113254984.61806      2440.014          40.950    26765828.395   107774897.44916      2321.826          36.850
C27  26203490.795   137700282.06106       521.496          38.600    26203489.633   136448460.10606       517.212          40.800    26203492.384   102828146.24306       389.662          38.950    26203492.569   110875559.51506       419.999          37.750    26203490.379   105510599.67606       399.931          38.400
C30  26143028.528   137382549.19006      2397.048          38.150    26143027.478   136133607.70807      2375.274          42.800    26143034.041   102590886.64807      1790.093          42.000    26143032.896   110619736.68806      1930.261          39.550    26143030.736   105267164.80606      1836.708          38.100
C36  21965167.123   115427853.07208     -1349.531          52.650    21965166.056   114378518.81809     -1337.239          54.600    21965175.832    86196238.22209     -1007.772          56.050    21965173.446    92942006.86508     -1086.653          53.550    21965173.208    88444737.64408     -1034.121          52.350
C39  22400723.101   117716624.01108      1433.167          52.700    22400720.535   116646532.95809      1420.049          54.000    22400716.503    87905303.05409      1070.147          55.650    22400715.832    94784850.84608      1153.933          52.950    22400714.715    90198478.18108      1098.090          52.350
C42  26200273.839   137683360.57006      3074.946          39.900    26200272.687   136431704.34606      3046.884          41.600    26200286.897   102815575.26907      2296.121          43.250    26200283.698   110861983.48206      2475.795          40.050    26200284.837   105497686.49806      2355.944          40.900
S21  38211382.713   200801992.75707        -1.888          46.800
S36  38097204.660   200202184.29407         1.059          46.500    38097178.225   149501742.05807          .853          46.200
> 2026 05 13 00 02  0.0000000  0 44
G05  24903883.519   130870801.60106     -3766.882          38.150                                                                    24903885.045   101977230.80006     -2935.239          38.850    24903885.164   101977255.79606     -2935.238          38.550
G10  25038663.476   131579068.36806      2578.276          40.600                                                                    25038664.750   102529155.32206      2009.050          40.850    25038665.444   102529157.30306      2009.049          40.050    25038663.366    98257098.27907      1925.369          46.000
G12  24556172.071   129043583.49506      3867.996          41.800                                                                    24556172.911   100553443.11306      3014.027          41.600    24556173.088   100553440.11506      3014.028          41.850
G13  24182212.349   127078385.86206      3632.234          41.750    24182212.487   127078435.87507      3632.083          42.050    24182214.044    99022124.22007      2830.312          42.300    24182214.288    99022138.24406      2830.316          38.750    24182216.860    94896217.51407      2712.198          45.800
G14  22308766.054   117233483.96307     -2645.287          47.350    22308765.910   117233492.97107     -2645.166          47.500    22308765.575    91350813.82108     -2061.263          48.250    22308765.846    91350833.82707     -2061.263          45.000    22308769.126    87544564.76108     -1975.150          50.400
G15  19936087.674   104764893.01308      -638.212          53.800                                                                    19936086.522    81634995.38008      -497.309          53.900    19936086.610    81634994.38108      -497.309          53.950
G17  22934303.193   120520624.58507       995.432          46.750                                                                    22934302.686    93912198.15307       775.662          45.950    22934302.844    93912200.15307       775.662          47.000
G19  23533768.241   123670803.19307      2837.880          45.250                                                                                                                                    23533766.498    96366885.50607      2211.337          43.150
G20  20675272.212   108649372.86008     -1662.234          52.050    20675272.183   108649379.86808     -1662.280          52.100    20675271.901    84661892.72109     -1295.248          55.250    20675272.119    84661896.72008     -1295.248          51.750    20675274.433    81134335.60209     -1241.230          57.800
G22  21650845.402   113776045.04608     -2115.225          50.750                                                                                                                                    21650843.541    88656696.60707     -1648.228          47.000
G23  22558146.075   118543877.51607       612.798          46.850    22558146.026   118543884.52207       612.801          46.750    22558145.410    92371864.66208       477.504          48.650    22558145.721    92371864.65807       477.504          45.350    22558149.278    88523060.34508       457.649          51.650
G24  20908339.667   109874119.97008      2173.370          50.500                                                                    20908340.578    85616229.33308      1693.536          50.500    20908340.901    85616229.33208      1693.536          50.700    20908340.964    82048895.05309      1623.063          55.300
G30  24540419.497   128960884.15006     -2980.706          39.900                                                                    24540422.653   100489047.35806     -2322.628          40.150    24540422.617   100489073.35806     -2322.630          40.950    24540421.489    96302074.22607     -2225.921          43.850
R03  20972695.811   112268557.55408     -3548.782          51.100    20972697.649    87320025.39508     -2760.164          48.950    20972697.620    87320022.39508     -2760.164          49.150
R04  19143385.514   102512019.32608       187.600          53.650    19143386.705    79731590.12208       145.910          51.900    19143386.587    79731592.12208       145.910          52.600    19143378.150    76755913.56809       140.525          59.250
R05  21609834.351   115516985.32408      3622.031          48.800    21609836.729    89846565.69007      2817.136          46.950    21609836.700    89846570.69407      2817.136          47.800    21609827.407    86645158.33908      2716.707          49.850
R13  21415081.044   114355447.80507     -3343.856          44.300
R14  19252588.140   102627237.58409       317.775          54.500    19252591.445    79821231.40708       247.159          51.750    19252591.456    79821234.41308       247.159          52.600
R15  21956704.391   117330015.14908      3360.310          49.450    21956707.532    91256642.24807      2613.576          44.950    21956707.735    91256684.25007      2613.576          45.400
