% program   : RTKLIB ver.2.4.2
% inp file  : /tmp/cd-phase1-data/trim/PASA00ESP_R_20261201000_02H_30S_MO.rnx
% inp file  : /tmp/cd-phase1-data/trim/SCOA00FRA_R_20261201000_02H_30S_MO.rnx
% inp file  : /tmp/cd-phase1-data/trim/BRDC00WRD_R_20261200800_06H_MN.rnx
% inp file  : /tmp/cd-phase1-data/trim/igs_fin.sp3
% inp file  : /tmp/cd-phase1-data/trim/igs_fin.clk
% obs start : 2026/04/30 10:00:00.0 GPST (week2416 381600.0s)
% obs end   : 2026/04/30 11:59:30.0 GPST (week2416 388770.0s)
% pos mode  : static
% freqs     : L1+L2
% solution  : forward
% elev mask : 15.0 deg
% dynamics  : off
% tidecorr  : on
% ionos opt : iono-free
% tropo opt : saastamoinen
% ephemeris : precise
% amb res   : continuous
% val thres : 3.0
% antenna1  : LEIAR20         LEIM  ( 0.0000  0.0000  0.0000)
% antenna2  : TRM55971.00     NONE  ( 0.0000  0.0000  0.0000)
% ref pos   : 43.395237929   -1.681673607    59.4577
%
% (e/n/u-baseline=WGS84,Q=1:fix,2:float,3:sbas,4:dgps,5:single,6:ppp,ns=# of satellites)
%  GPST                  e-baseline(m)  n-baseline(m)  u-baseline(m)   Q  ns   sde(m)   sdn(m)   sdu(m)  sden(m)  sdnu(m)  sdue(m) age(s)  ratio
2026/04/30 10:00:00.000    -20264.7968     -8131.8086       -29.6866   2   4   1.2291   3.1849   3.8532  -0.4229   2.6124   0.4249   0.00    1.8
2026/04/30 10:00:30.000    -20264.8162     -8132.0719       -29.3632   2   4   0.8654   1.6910   2.2640  -0.0114   1.2282   0.3826   0.00    1.4
2026/04/30 10:01:00.000    -20264.8463     -8132.7731       -28.9751   1   4   0.0071   0.0188   0.0228  -0.0025   0.0157   0.0023   0.00    3.6
2026/04/30 10:01:30.000    -20264.8448     -8132.7767       -28.9789   1   4   0.0062   0.0164   0.0199  -0.0023   0.0138   0.0019   0.00    3.3
2026/04/30 10:02:00.000    -20265.1333     -8132.2986       -29.0078   2   4   0.5370   0.5580   0.9066   0.1917   0.1788   0.2336   0.00    2.6
2026/04/30 10:02:30.000    -20265.2899     -8132.3544       -28.9997   2   4   0.4861   0.4392   0.7318   0.1838   0.0641   0.2025   0.00    1.9
2026/04/30 10:03:00.000    -20265.4292     -8132.2620       -29.1772   2   4   0.4459   0.3579   0.6055   0.1748  -0.0692   0.1780   0.00    1.4
2026/04/30 10:03:30.000    -20265.5312     -8132.2569       -29.3465   2   4   0.4128   0.2995   0.5109   0.1659  -0.0846   0.1584   0.00    1.1
2026/04/30 10:04:00.000    -20265.6137     -8132.2842       -29.2499   2   4   0.3848   0.2560   0.4382   0.1573  -0.0850   0.1423   0.00    1.0
2026/04/30 10:04:30.000    -20265.6557     -8132.2898       -29.3082   2   4   0.3606   0.2225   0.3809   0.1493  -0.0811   0.1289   0.00    1.1
2026/04/30 10:05:00.000    -20265.6360     -8132.2701       -29.4453   2   4   0.3392   0.1960   0.3350   0.1419  -0.0758   0.1175   0.00    1.0
2026/04/30 10:05:30.000    -20265.6401     -8132.2596       -29.4530   2   4   0.3202   0.1747   0.2975   0.1349  -0.0703   0.1076   0.00    1.0
2026/04/30 10:06:00.000    -20265.6412     -8132.2853       -29.5320   2   4   0.3031   0.1572   0.2665   0.1284  -0.0652   0.0990   0.00    1.0
2026/04/30 10:06:30.000    -20265.6360     -8132.2794       -29.5557   2   4   0.2874   0.1427   0.2406   0.1224  -0.0605   0.0913   0.00    1.0
2026/04/30 10:07:00.000    -20265.6273     -8132.2635       -29.5663   2   4   0.2732   0.1304   0.2186   0.1167  -0.0562   0.0845   0.00    1.0
2026/04/30 10:07:30.000    -20265.6277     -8132.2740       -29.5534   2   4   0.2600   0.1200   0.1998   0.1115  -0.0525   0.0783   0.00    1.0
2026/04/30 10:08:00.000    -20265.6609     -8132.3060       -29.4909   2   4   0.2478   0.1109   0.1835   0.1065  -0.0492   0.0726   0.00    1.0
2026/04/30 10:08:30.000    -20265.6605     -8132.3225       -29.4441   2   4   0.2365   0.1031   0.1694   0.1019  -0.0462   0.0674   0.00    1.0
2026/04/30 10:09:00.000    -20265.6751     -8132.3492       -29.4029   2   4   0.2260   0.0962   0.1571   0.0975  -0.0436   0.0627   0.00    1.0
2026/04/30 10:09:30.000    -20265.6784     -8132.3609       -29.3748   2   4   0.2162   0.0901   0.1462   0.0934  -0.0413   0.0583   0.00    1.0
2026/04/30 10:10:00.000    -20265.6601     -8132.3597       -29.3659   2   4   0.2070   0.0847   0.1365   0.0896  -0.0393   0.0542   0.00    1.0
2026/04/30 10:10:30.000    -20265.6571     -8132.3679       -29.3532   2   4   0.1983   0.0798   0.1279   0.0860  -0.0375   0.0503   0.00    1.0
2026/04/30 10:11:00.000    -20265.6658     -8132.3726       -29.3474   2   4   0.1903   0.0755   0.1202   0.0825  -0.0358   0.0467   0.00    1.0
2026/04/30 10:11:30.000    -20265.6627     -8132.3773       -29.3495   2   4   0.1827   0.0715   0.1133   0.0793  -0.0344   0.0434   0.00    1.0
2026/04/30 10:12:00.000    -20265.6429     -8132.3802       -29.3653   2   4   0.1755   0.0680   0.1070   0.0763  -0.0330   0.0402   0.00    1.0
2026/04/30 10:12:30.000    -20265.6341     -8132.3706       -29.3923   2   4   0.1688   0.0647   0.1014   0.0734  -0.0318   0.0372   0.00    1.0
2026/04/30 10:13:00.000    -20265.6232     -8132.3645       -29.4143   2   4   0.1624   0.0617   0.0962   0.0707  -0.0307   0.0344   0.00    1.1
2026/04/30 10:13:30.000    -20265.6160     -8132.3551       -29.4208   2   4   0.1564   0.0590   0.0915   0.0682  -0.0298   0.0316   0.00    1.1
2026/04/30 10:14:00.000    -20265.6156     -8132.3443       -29.4426   2   4   0.1508   0.0565   0.0872   0.0658  -0.0288   0.0290   0.00    1.1
2026/04/30 10:14:30.000    -20265.6047     -8132.3279       -29.4816   2   4   0.1454   0.0542   0.0833   0.0635  -0.0280   0.0265   0.00    1.0
2026/04/30 10:15:00.000    -20265.6068     -8132.3229       -29.4814   2   4   0.1404   0.0521   0.0796   0.0613  -0.0272   0.0241   0.00    1.0
2026/04/30 10:15:30.000    -20265.6035     -8132.3218       -29.4699   2   4   0.1356   0.0501   0.0763   0.0593  -0.0265   0.0217   0.00    1.1
2026/04/30 10:16:00.000    -20265.5993     -8132.3116       -29.4652   2   4   0.1311   0.0482   0.0732   0.0573  -0.0258   0.0194   0.00    1.1
2026/04/30 10:16:30.000    -20265.5945     -8132.3045       -29.4674   2   4   0.1268   0.0465   0.0703   0.0555  -0.0252   0.0170   0.00    1.1
2026/04/30 10:17:00.000    -20265.5911     -8132.2945       -29.4703   2   4   0.1227   0.0449   0.0676   0.0538  -0.0246   0.0147   0.00    1.1
2026/04/30 10:17:30.000    -20265.5944     -8132.2883       -29.4646   2   4   0.1189   0.0434   0.0651   0.0521  -0.0241   0.0122   0.00    1.1
2026/04/30 10:18:00.000    -20265.5865     -8132.2779       -29.4761   2   4   0.1152   0.0420   0.0628   0.0506  -0.0236   0.0094   0.00    1.1
2026/04/30 10:18:30.000    -20265.5665     -8132.2623       -29.4946   2   4   0.1118   0.0407   0.0607   0.0491  -0.0231   0.0061   0.00    1.1
2026/04/30 10:19:00.000    -20265.5579     -8132.2457       -29.5107   2   5   0.1084   0.0394   0.0586   0.0476  -0.0226  -0.0034   0.00    1.1
2026/04/30 10:19:30.000    -20265.5577     -8132.2337       -29.5178   2   5   0.1052   0.0383   0.0567   0.0463  -0.0222  -0.0074   0.00    1.2
2026/04/30 10:20:00.000    -20265.5729     -8132.2336       -29.5036   2   5   0.1021   0.0372   0.0550   0.0450  -0.0218  -0.0096   0.00    1.1
2026/04/30 10:20:30.000    -20265.5617     -8132.2224       -29.5154   2   5   0.0993   0.0361   0.0533   0.0437  -0.0214  -0.0111   0.00    1.1
2026/04/30 10:21:00.000    -20265.5761     -8132.2228       -29.5034   2   5   0.0965   0.0352   0.0517   0.0425  -0.0210  -0.0124   0.00    1.1
2026/04/30 10:21:30.000    -20265.5921     -8132.2276       -29.4883   2   5   0.0939   0.0342   0.0502   0.0414  -0.0207  -0.0133   0.00    1.1
2026/04/30 10:22:00.000    -20265.5959     -8132.2273       -29.4897   2   5   0.0914   0.0334   0.0488   0.0404  -0.0203  -0.0141   0.00    1.0
2026/04/30 10:22:30.000    -20265.6044     -8132.2305       -29.4849   2   5   0.0890   0.0325   0.0475   0.0393  -0.0200  -0.0148   0.00    1.0
2026/04/30 10:23:00.000    -20265.5926     -8132.2270       -29.4936   2   5   0.0868   0.0318   0.0463   0.0384  -0.0197  -0.0153   0.00    1.0
2026/04/30 10:23:30.000    -20265.6049     -8132.2272       -29.4923   2   5   0.0846   0.0310   0.0451   0.0375  -0.0194  -0.0158   0.00    1.0
2026/04/30 10:24:00.000    -20265.5967     -8132.2224       -29.5020   2   5   0.0826   0.0303   0.0439   0.0366  -0.0191  -0.0162   0.00    1.0
2026/04/30 10:24:30.000    -20265.5889     -8132.2206       -29.5055   2   5   0.0806   0.0296   0.0429   0.0357  -0.0188  -0.0165   0.00    1.1
2026/04/30 10:25:00.000    -20265.5840     -8132.2250       -29.4976   2   5   0.0787   0.0290   0.0418   0.0349  -0.0186  -0.0168   0.00    1.1
2026/04/30 10:25:30.000    -20265.5740     -8132.2226       -29.4993   2   5   0.0769   0.0284   0.0409   0.0342  -0.0183  -0.0170   0.00    1.1
2026/04/30 10:26:00.000    -20265.5779     -8132.2258       -29.4887   2   5   0.0752   0.0278   0.0400   0.0335  -0.0180  -0.0172   0.00    1.1
2026/04/30 10:26:30.000    -20265.5684     -8132.2232       -29.4952   2   5   0.0735   0.0273   0.0391   0.0328  -0.0178  -0.0173   0.00    1.1
2026/04/30 10:27:00.000    -20265.5545     -8132.2196       -29.5017   2   5   0.0719   0.0267   0.0382   0.0321  -0.0176  -0.0175   0.00    1.1
2026/04/30 10:27:30.000    -20265.5524     -8132.2183       -29.4952   2   5   0.0704   0.0262   0.0374   0.0314  -0.0173  -0.0176   0.00    1.1
2026/04/30 10:28:00.000    -20265.5426     -8132.2140       -29.4965   2   5   0.0689   0.0257   0.0367   0.0308  -0.0171  -0.0176   0.00    1.1
2026/04/30 10:28:30.000    -20265.5460     -8132.2121       -29.4971   2   5   0.0675   0.0253   0.0359   0.0302  -0.0169  -0.0177   0.00    1.1
2026/04/30 10:29:00.000    -20265.5444     -8132.2100       -29.5013   2   5   0.0662   0.0248   0.0352   0.0297  -0.0167  -0.0177   0.00    1.1
2026/04/30 10:29:30.000    -20265.5407     -8132.2081       -29.5040   2   5   0.0649   0.0244   0.0345   0.0291  -0.0165  -0.0177   0.00    1.1
2026/04/30 10:30:00.000    -20265.5505     -8132.2114       -29.4952   2   5   0.0636   0.0240   0.0339   0.0286  -0.0163  -0.0177   0.00    1.0
2026/04/30 10:30:30.000    -20265.5475     -8132.2092       -29.5021   2   5   0.0624   0.0236   0.0333   0.0281  -0.0161  -0.0177   0.00    1.0
2026/04/30 10:31:00.000    -20265.5535     -8132.2119       -29.4933   2   5   0.0613   0.0232   0.0327   0.0276  -0.0159  -0.0177   0.00    1.0
2026/04/30 10:31:30.000    -20265.5451     -8132.2083       -29.4934   2   5   0.0602   0.0229   0.0321   0.0271  -0.0158  -0.0177   0.00    1.0
2026/04/30 10:32:00.000    -20265.5430     -8132.2060       -29.4934   2   5   0.0591   0.0225   0.0315   0.0267  -0.0156  -0.0177   0.00    1.0
2026/04/30 10:32:30.000    -20265.5521     -8132.2062       -29.4892   2   5   0.0580   0.0222   0.0310   0.0262  -0.0154  -0.0176   0.00    1.0
2026/04/30 10:33:00.000    -20265.5486     -8132.2025       -29.4939   2   5   0.0570   0.0219   0.0305   0.0258  -0.0153  -0.0176   0.00    1.0
2026/04/30 10:33:30.000    -20265.5461     -8132.1988       -29.4981   2   5   0.0561   0.0216   0.0300   0.0254  -0.0151  -0.0175   0.00    1.0
2026/04/30 10:34:00.000    -20265.5441     -8132.1959       -29.5017   2   5   0.0551   0.0213   0.0295   0.0250  -0.0150  -0.0175   0.00    1.0
2026/04/30 10:34:30.000    -20265.5463     -8132.1951       -29.5027   2   5   0.0542   0.0210   0.0290   0.0247  -0.0148  -0.0174   0.00    1.1
2026/04/30 10:35:00.000    -20265.5512     -8132.1948       -29.4983   2   5   0.0534   0.0207   0.0286   0.0243  -0.0147  -0.0174   0.00    1.1
2026/04/30 10:35:30.000    -20265.5445     -8132.1911       -29.5014   2   5   0.0525   0.0204   0.0282   0.0240  -0.0145  -0.0173   0.00    1.1
2026/04/30 10:36:00.000    -20265.5449     -8132.1908       -29.4962   2   5   0.0517   0.0202   0.0277   0.0236  -0.0144  -0.0172   0.00    1.1
2026/04/30 10:36:30.000    -20265.5478     -8132.1908       -29.4922   2   5   0.0509   0.0199   0.0273   0.0233  -0.0143  -0.0172   0.00    1.1
2026/04/30 10:37:00.000    -20265.5473     -8132.1900       -29.4925   2   5   0.0502   0.0197   0.0269   0.0230  -0.0141  -0.0171   0.00    1.1
2026/04/30 10:37:30.000    -20265.5569     -8132.1929       -29.4839   2   5   0.0494   0.0195   0.0266   0.0227  -0.0140  -0.0170   0.00    1.1
2026/04/30 10:38:00.000    -20265.5529     -8132.1912       -29.4867   2   5   0.0487   0.0192   0.0262   0.0224  -0.0139  -0.0169   0.00    1.1
2026/04/30 10:38:30.000    -20265.5500     -8132.1901       -29.4853   2   5   0.0480   0.0190   0.0258   0.0221  -0.0138  -0.0169   0.00    1.1
2026/04/30 10:39:00.000    -20265.5472     -8132.1903       -29.4838   2   5   0.0473   0.0188   0.0255   0.0218  -0.0136  -0.0168   0.00    1.1
2026/04/30 10:39:30.000    -20265.5460     -8132.1916       -29.4801   2   5   0.0467   0.0186   0.0252   0.0215  -0.0135  -0.0167   0.00    1.1
2026/04/30 10:40:00.000    -20265.5490     -8132.1936       -29.4727   2   5   0.0461   0.0184   0.0248   0.0213  -0.0134  -0.0166   0.00    1.1
2026/04/30 10:40:30.000    -20265.5514     -8132.1943       -29.4700   2   5   0.0454   0.0182   0.0245   0.0210  -0.0133  -0.0165   0.00    1.1
2026/04/30 10:41:00.000    -20265.5514     -8132.1967       -29.4655   2   5   0.0448   0.0180   0.0242   0.0208  -0.0132  -0.0165   0.00    1.1
2026/04/30 10:41:30.000    -20265.5483     -8132.1965       -29.4657   2   5   0.0443   0.0178   0.0239   0.0206  -0.0131  -0.0164   0.00    1.1
2026/04/30 10:42:00.000    -20265.5424     -8132.1943       -29.4691   2   5   0.0437   0.0177   0.0236   0.0203  -0.0130  -0.0163   0.00    1.1
2026/04/30 10:42:30.000    -20265.5415     -8132.1956       -29.4656   2   5   0.0432   0.0175   0.0234   0.0201  -0.0129  -0.0162   0.00    1.1
2026/04/30 10:43:00.000    -20265.5424     -8132.1956       -29.4676   2   5   0.0426   0.0173   0.0231   0.0199  -0.0128  -0.0162   0.00    1.1
2026/04/30 10:43:30.000    -20265.5432     -8132.1970       -29.4640   2   5   0.0421   0.0172   0.0228   0.0197  -0.0127  -0.0161   0.00    1.1
2026/04/30 10:44:00.000    -20265.5427     -8132.1973       -29.4607   2   5   0.0416   0.0170   0.0226   0.0195  -0.0126  -0.0160   0.00    1.1
2026/04/30 10:44:30.000    -20265.5423     -8132.1964       -29.4597   2   5   0.0411   0.0169   0.0223   0.0193  -0.0125  -0.0159   0.00    1.1
2026/04/30 10:45:00.000    -20265.5435     -8132.1963       -29.4570   2   5   0.0407   0.0167   0.0221   0.0191  -0.0125  -0.0158   0.00    1.0
2026/04/30 10:45:30.000    -20265.5419     -8132.1955       -29.4565   2   5   0.0402   0.0166   0.0218   0.0189  -0.0124  -0.0158   0.00    1.0
2026/04/30 10:46:00.000    -20265.5414     -8132.1959       -29.4537   2   5   0.0398   0.0164   0.0216   0.0187  -0.0123  -0.0157   0.00    1.0
2026/04/30 10:46:30.000    -20265.5357     -8132.1952       -29.4537   2   5   0.0393   0.0163   0.0214   0.0186  -0.0122  -0.0156   0.00    1.0
2026/04/30 10:47:00.000    -20265.5302     -8132.1947       -29.4528   2   5   0.0389   0.0162   0.0212   0.0184  -0.0121  -0.0156   0.00    1.0
2026/04/30 10:47:30.000    -20265.5316     -8132.1948       -29.4501   2   5   0.0385   0.0160   0.0209   0.0182  -0.0121  -0.0155   0.00    1.0
2026/04/30 10:48:00.000    -20265.5275     -8132.1935       -29.4524   2   5   0.0381   0.0159   0.0207   0.0181  -0.0120  -0.0154   0.00    1.0
2026/04/30 10:48:30.000    -20265.5297     -8132.1947       -29.4500   2   5   0.0377   0.0158   0.0205   0.0179  -0.0119  -0.0154   0.00    1.1
2026/04/30 10:49:00.000    -20265.5293     -8132.1945       -29.4509   2   5   0.0373   0.0157   0.0203   0.0178  -0.0118  -0.0153   0.00    1.1
2026/04/30 10:49:30.000    -20265.5277     -8132.1945       -29.4507   2   5   0.0370   0.0156   0.0201   0.0176  -0.0118  -0.0152   0.00    1.1
2026/04/30 10:50:00.000    -20265.5290     -8132.1949       -29.4495   2   5   0.0366   0.0154   0.0200   0.0175  -0.0117  -0.0152   0.00    1.1
2026/04/30 10:50:30.000    -20265.5273     -8132.1935       -29.4513   2   5   0.0363   0.0153   0.0198   0.0173  -0.0116  -0.0151   0.00    1.1
2026/04/30 10:51:00.000    -20265.5248     -8132.1936       -29.4505   2   5   0.0359   0.0152   0.0196   0.0172  -0.0116  -0.0151   0.00    1.1
2026/04/30 10:51:30.000    -20265.5205     -8132.1927       -29.4527   2   5   0.0356   0.0151   0.0194   0.0171  -0.0115  -0.0150   0.00    1.1
2026/04/30 10:52:00.000    -20265.5190     -8132.1932       -29.4518   2   5   0.0353   0.0150   0.0192   0.0170  -0.0115  -0.0149   0.00    1.1
2026/04/30 10:52:30.000    -20265.5159     -8132.1929       -29.4513   2   5   0.0350   0.0149   0.0191   0.0168  -0.0114  -0.0149   0.00    1.1
2026/04/30 10:53:00.000    -20265.5089     -8132.1917       -29.4534   2   5   0.0346   0.0148   0.0189   0.0167  -0.0113  -0.0148   0.00    1.1
2026/04/30 10:53:30.000    -20265.5083     -8132.1923       -29.4516   2   5   0.0343   0.0147   0.0188   0.0166  -0.0113  -0.0148   0.00    1.2
2026/04/30 10:54:00.000    -20265.5075     -8132.1920       -29.4528   2   5   0.0341   0.0146   0.0186   0.0165  -0.0112  -0.0147   0.00    1.2
2026/04/30 10:54:30.000    -20265.5031     -8132.1906       -29.4547   2   5   0.0338   0.0146   0.0185   0.0164  -0.0112  -0.0147   0.00    1.2
2026/04/30 10:55:00.000    -20265.5005     -8132.1906       -29.4540   2   5   0.0335   0.0145   0.0183   0.0163  -0.0111  -0.0146   0.00    1.2
2026/04/30 10:55:30.000    -20265.4975     -8132.1899       -29.4546   2   5   0.0332   0.0144   0.0182   0.0162  -0.0111  -0.0146   0.00    1.2
2026/04/30 10:56:00.000    -20265.4947     -8132.1889       -29.4551   2   5   0.0330   0.0143   0.0180   0.0161  -0.0110  -0.0145   0.00    1.2
2026/04/30 10:56:30.000    -20265.4934     -8132.1891       -29.4530   2   5   0.0327   0.0142   0.0179   0.0160  -0.0110  -0.0145   0.00    1.2
2026/04/30 10:57:00.000    -20265.4918     -8132.1884       -29.4527   2   5   0.0325   0.0141   0.0178   0.0159  -0.0109  -0.0144   0.00    1.2
2026/04/30 10:57:30.000    -20265.4911     -8132.1882       -29.4517   2   5   0.0322   0.0141   0.0176   0.0158  -0.0109  -0.0144   0.00    1.2
2026/04/30 10:58:00.000    -20265.4881     -8132.1864       -29.4533   2   5   0.0320   0.0140   0.0175   0.0157  -0.0108  -0.0144   0.00    1.2
2026/04/30 10:58:30.000    -20265.2119     -8131.9607       -29.6034   1   4   0.0026   0.0035   0.0083  -0.0013   0.0019  -0.0029   0.00   13.6
2026/04/30 10:59:00.000    -20265.2121     -8131.9611       -29.6034   1   4   0.0025   0.0034   0.0084  -0.0013   0.0018  -0.0028   0.00   13.9
2026/04/30 10:59:30.000    -20265.2125     -8131.9620       -29.6024   1   4   0.0025   0.0034   0.0084  -0.0013   0.0018  -0.0028   0.00   14.1
2026/04/30 11:00:00.000    -20265.2127     -8131.9627       -29.6016   1   4   0.0025   0.0034   0.0084  -0.0012   0.0018  -0.0028   0.00   14.3
2026/04/30 11:00:30.000    -20265.2130     -8131.9636       -29.6005   1   4   0.0025   0.0034   0.0084  -0.0012   0.0018  -0.0028   0.00   14.5
2026/04/30 11:01:00.000    -20265.2133     -8131.9642       -29.5993   1   4   0.0025   0.0034   0.0085  -0.0012   0.0017  -0.0028   0.00   14.7
2026/04/30 11:01:30.000    -20265.2131     -8131.9646       -29.5987   1   4   0.0025   0.0034   0.0085  -0.0012   0.0017  -0.0028   0.00   15.0
2026/04/30 11:02:00.000    -20265.2132     -8131.9652       -29.5975   1   4   0.0025   0.0033   0.0085  -0.0012   0.0017  -0.0027   0.00   15.2
2026/04/30 11:02:30.000    -20265.2134     -8131.9662       -29.5963   1   4   0.0025   0.0033   0.0085  -0.0012   0.0017  -0.0027   0.00   15.4
2026/04/30 11:03:00.000    -20265.2131     -8131.9669       -29.5963   1   4   0.0025   0.0033   0.0085  -0.0012   0.0016  -0.0027   0.00   15.7
2026/04/30 11:03:30.000    -20265.2130     -8131.9678       -29.5958   1   4   0.0025   0.0033   0.0086  -0.0012   0.0016  -0.0027   0.00   16.0
2026/04/30 11:04:00.000    -20265.2131     -8131.9684       -29.5950   1   4   0.0025   0.0033   0.0086  -0.0012   0.0016  -0.0026   0.00   16.2
2026/04/30 11:04:30.000    -20265.2130     -8131.9691       -29.5945   1   4   0.0025   0.0033   0.0086  -0.0012   0.0015  -0.0026   0.00   16.5
2026/04/30 11:05:00.000    -20265.2129     -8131.9699       -29.5937   1   4   0.0025   0.0033   0.0086  -0.0012   0.0015  -0.0026   0.00   16.7
2026/04/30 11:05:30.000    -20265.2129     -8131.9708       -29.5928   1   4   0.0025   0.0032   0.0086  -0.0012   0.0015  -0.0026   0.00   16.8
2026/04/30 11:06:00.000    -20265.2127     -8131.9717       -29.5922   1   4   0.0025   0.0032   0.0087  -0.0012   0.0014  -0.0025   0.00   16.9
2026/04/30 11:06:30.000    -20265.2126     -8131.9729       -29.5913   1   4   0.0025   0.0032   0.0087  -0.0012   0.0014  -0.0025   0.00   16.9
2026/04/30 11:07:00.000    -20265.2125     -8131.9743       -29.5905   1   4   0.0025   0.0032   0.0087  -0.0012   0.0013  -0.0025   0.00   16.9
2026/04/30 11:07:30.000    -20265.2123     -8131.9754       -29.5900   1   4   0.0025   0.0032   0.0087  -0.0012   0.0013  -0.0024   0.00   16.9
2026/04/30 11:08:00.000    -20265.2124     -8131.9766       -29.5890   1   4   0.0025   0.0032   0.0087  -0.0012   0.0013  -0.0024   0.00   16.9
2026/04/30 11:08:30.000    -20265.2125     -8131.9779       -29.5880   1   4   0.0025   0.0032   0.0087  -0.0012   0.0012  -0.0023   0.00   16.9
2026/04/30 11:09:00.000    -20265.2123     -8131.9792       -29.5872   1   4   0.0025   0.0031   0.0087  -0.0012   0.0012  -0.0023   0.00   16.8
2026/04/30 11:09:30.000    -20265.2120     -8131.9802       -29.5864   1   4   0.0025   0.0031   0.0088  -0.0012   0.0011  -0.0023   0.00   16.8
2026/04/30 11:10:00.000    -20265.2118     -8131.9812       -29.5857   1   4   0.0025   0.0031   0.0088  -0.0012   0.0011  -0.0022   0.00   16.8
2026/04/30 11:10:30.000    -20265.2117     -8131.9819       -29.5850   1   4   0.0025   0.0031   0.0088  -0.0012   0.0010  -0.0022   0.00   16.8
2026/04/30 11:11:00.000    -20265.2117     -8131.9827       -29.5838   1   4   0.0025   0.0031   0.0088  -0.0012   0.0009  -0.0021   0.00   16.8
2026/04/30 11:11:30.000    -20265.2116     -8131.9836       -29.5825   1   4   0.0025   0.0031   0.0088  -0.0011   0.0009  -0.0021   0.00   16.8
2026/04/30 11:12:00.000    -20265.2114     -8131.9846       -29.5813   1   4   0.0025   0.0031   0.0088  -0.0011   0.0008  -0.0020   0.00   16.7
2026/04/30 11:12:30.000    -20265.2111     -8131.9857       -29.5802   1   4   0.0025   0.0031   0.0088  -0.0011   0.0007  -0.0020   0.00   16.6
2026/04/30 11:13:00.000    -20265.2111     -8131.9866       -29.5783   1   4   0.0025   0.0031   0.0088  -0.0011   0.0006  -0.0019   0.00   16.5
2026/04/30 11:13:30.000    -20265.2108     -8131.9872       -29.5774   1   4   0.0025   0.0030   0.0088  -0.0011   0.0005  -0.0019   0.00   16.5
2026/04/30 11:14:00.000    -20265.2110     -8131.9879       -29.5759   1   4   0.0025   0.0030   0.0088  -0.0011   0.0004  -0.0018   0.00   16.5
2026/04/30 11:14:30.000    -20265.2110     -8131.9886       -29.5747   1   4   0.0025   0.0030   0.0088  -0.0011   0.0001  -0.0018   0.00   16.5
2026/04/30 11:15:00.000    -20265.2112     -8131.9894       -29.5740   1   4   0.0025   0.0030   0.0088  -0.0011  -0.0004  -0.0017   0.00   16.5
2026/04/30 11:15:30.000    -20265.2112     -8131.9903       -29.5728   1   4   0.0025   0.0030   0.0088  -0.0011  -0.0005  -0.0016   0.00   16.5
2026/04/30 11:16:00.000    -20265.2112     -8131.9909       -29.5720   1   4   0.0025   0.0030   0.0088  -0.0011  -0.0006  -0.0016   0.00   16.6
2026/04/30 11:16:30.000    -20265.2114     -8131.9918       -29.5705   1   4   0.0025   0.0030   0.0088  -0.0011  -0.0007  -0.0015   0.00   16.6
2026/04/30 11:17:00.000    -20265.2118     -8131.9927       -29.5685   1   4   0.0025   0.0030   0.0088  -0.0011  -0.0008  -0.0014   0.00   16.5
2026/04/30 11:17:30.000    -20265.2118     -8131.9932       -29.5674   1   4   0.0025   0.0030   0.0088  -0.0011  -0.0009  -0.0013   0.00   16.5
2026/04/30 11:18:00.000    -20265.2116     -8131.9936       -29.5663   1   4   0.0025   0.0030   0.0088  -0.0011  -0.0009  -0.0012   0.00   16.4
2026/04/30 11:18:30.000    -20265.2117     -8131.9942       -29.5644   1   4   0.0025   0.0030   0.0088  -0.0011  -0.0010  -0.0011   0.00   16.3
2026/04/30 11:19:00.000    -20265.2120     -8131.9950       -29.5626   1   4   0.0025   0.0030   0.0088  -0.0011  -0.0011  -0.0010   0.00   16.2
2026/04/30 11:19:30.000    -20265.2123     -8131.9958       -29.5606   1   4   0.0025   0.0029   0.0088  -0.0011  -0.0011  -0.0009   0.00   16.1
2026/04/30 11:20:00.000    -20265.2121     -8131.9963       -29.5594   1   4   0.0025   0.0029   0.0088  -0.0011  -0.0012  -0.0007   0.00   16.1
2026/04/30 11:20:30.000    -20265.2122     -8131.9967       -29.5583   1   4   0.0025   0.0029   0.0088  -0.0011  -0.0012  -0.0005   0.00   16.1
2026/04/30 11:21:00.000    -20265.2123     -8131.9973       -29.5571   1   4   0.0025   0.0029   0.0088  -0.0011  -0.0013  -0.0001   0.00   16.1
2026/04/30 11:21:30.000    -20265.2122     -8131.9983       -29.5553   1   4   0.0025   0.0029   0.0088  -0.0011  -0.0013   0.0005   0.00   16.0
2026/04/30 11:22:00.000    -20265.2117     -8131.9992       -29.5547   1   4   0.0025   0.0029   0.0088  -0.0011  -0.0014   0.0007   0.00   16.0
2026/04/30 11:22:30.000    -20265.2112     -8131.9999       -29.5545   1   4   0.0025   0.0029   0.0088  -0.0012  -0.0014   0.0009   0.00   16.0
2026/04/30 11:23:00.000    -20265.2106     -8132.0006       -29.5544   1   4   0.0025   0.0029   0.0088  -0.0012  -0.0015   0.0010   0.00   16.0
2026/04/30 11:23:30.000    -20265.2102     -8132.0014       -29.5538   1   4   0.0025   0.0029   0.0088  -0.0012  -0.0015   0.0011   0.00   15.9
2026/04/30 11:24:00.000    -20265.2099     -8132.0021       -29.5531   1   4   0.0025   0.0029   0.0087  -0.0012  -0.0015   0.0012   0.00   15.8
2026/04/30 11:24:30.000    -20265.2092     -8132.0031       -29.5525   1   4   0.0025   0.0029   0.0087  -0.0012  -0.0016   0.0013   0.00   15.7
2026/04/30 11:25:00.000    -20265.2087     -8132.0040       -29.5522   1   4   0.0026   0.0029   0.0087  -0.0012  -0.0016   0.0014   0.00   15.6
2026/04/30 11:25:30.000    -20265.2080     -8132.0049       -29.5525   1   4   0.0026   0.0029   0.0087  -0.0012  -0.0017   0.0015   0.00   15.6
2026/04/30 11:26:00.000    -20265.2076     -8132.0059       -29.5529   1   4   0.0026   0.0029   0.0087  -0.0012  -0.0017   0.0016   0.00   15.7
2026/04/30 11:26:30.000    -20265.2073     -8132.0068       -29.5522   1   4   0.0026   0.0029   0.0087  -0.0012  -0.0017   0.0016   0.00   15.7
2026/04/30 11:27:00.000    -20265.2074     -8132.0080       -29.5513   1   4   0.0026   0.0029   0.0087  -0.0012  -0.0018   0.0017   0.00   15.7
2026/04/30 11:27:30.000    -20265.2071     -8132.0090       -29.5512   1   4   0.0026   0.0029   0.0086  -0.0012  -0.0018   0.0018   0.00   15.7
2026/04/30 11:28:00.000    -20265.2067     -8132.0095       -29.5526   1   4   0.0026   0.0029   0.0086  -0.0012  -0.0018   0.0018   0.00   16.0
2026/04/30 11:28:30.000    -20265.2064     -8132.0106       -29.5526   1   4   0.0026   0.0029   0.0086  -0.0012  -0.0019   0.0019   0.00   16.1
2026/04/30 11:29:00.000    -20265.2062     -8132.0118       -29.5524   1   4   0.0026   0.0028   0.0086  -0.0012  -0.0019   0.0020   0.00   16.1
2026/04/30 11:29:30.000    -20265.2056     -8132.0131       -29.5525   1   4   0.0026   0.0028   0.0086  -0.0012  -0.0019   0.0020   0.00   16.1
2026/04/30 11:30:00.000    -20265.2052     -8132.0144       -29.5521   1   4   0.0026   0.0028   0.0085  -0.0012  -0.0019   0.0021   0.00   16.0
2026/04/30 11:30:30.000    -20265.2044     -8132.0153       -29.5530   1   4   0.0027   0.0028   0.0085  -0.0012  -0.0020   0.0021   0.00   16.1
2026/04/30 11:31:00.000    -20265.2039     -8132.0168       -29.5519   1   4   0.0027   0.0028   0.0085  -0.0013  -0.0020   0.0022   0.00   15.9
2026/04/30 11:31:30.000    -20265.2032     -8132.0182       -29.5509   1   4   0.0027   0.0028   0.0085  -0.0013  -0.0020   0.0022   0.00   15.6
2026/04/30 11:32:00.000    -20265.2023     -8132.0193       -29.5501   1   4   0.0027   0.0028   0.0085  -0.0013  -0.0020   0.0023   0.00   15.3
2026/04/30 11:32:30.000    -20265.2013     -8132.0204       -29.5496   1   4   0.0027   0.0028   0.0084  -0.0013  -0.0021   0.0023   0.00   15.0
2026/04/30 11:33:00.000    -20265.2007     -8132.0218       -29.5483   1   4   0.0027   0.0028   0.0084  -0.0013  -0.0021   0.0024   0.00   14.7
2026/04/30 11:33:30.000    -20265.1999     -8132.0226       -29.5476   1   4   0.0027   0.0028   0.0084  -0.0013  -0.0021   0.0024   0.00   14.5
2026/04/30 11:34:00.000    -20265.1988     -8132.0230       -29.5479   1   4   0.0027   0.0028   0.0084  -0.0013  -0.0021   0.0025   0.00   14.3
2026/04/30 11:34:30.000    -20265.1983     -8132.0244       -29.5467   1   4   0.0028   0.0028   0.0083  -0.0013  -0.0021   0.0025   0.00   14.1
2026/04/30 11:35:00.000    -20265.1975     -8132.0256       -29.5459   1   4   0.0028   0.0028   0.0083  -0.0013  -0.0022   0.0025   0.00   13.8
2026/04/30 11:35:30.000    -20265.1966     -8132.0264       -29.5463   1   4   0.0028   0.0028   0.0083  -0.0013  -0.0022   0.0026   0.00   13.7
2026/04/30 11:36:00.000    -20265.1963     -8132.0277       -29.5454   1   4   0.0028   0.0028   0.0083  -0.0013  -0.0022   0.0026   0.00   13.6
2026/04/30 11:36:30.000    -20265.1959     -8132.0285       -29.5454   1   4   0.0028   0.0028   0.0082  -0.0014  -0.0022   0.0027   0.00   13.6
2026/04/30 11:37:00.000    -20265.1955     -8132.0290       -29.5458   1   4   0.0028   0.0028   0.0082  -0.0014  -0.0022   0.0027   0.00   13.7
2026/04/30 11:37:30.000    -20265.5022     -8132.2007       -29.4550   2   5   0.0250   0.0113   0.0146   0.0136  -0.0104  -0.0156   0.00    1.6
2026/04/30 11:38:00.000    -20265.5020     -8132.2009       -29.4541   2   5   0.0249   0.0113   0.0146   0.0136  -0.0104  -0.0156   0.00    2.0
2026/04/30 11:38:30.000    -20265.5018     -8132.2008       -29.4539   2   5   0.0249   0.0113   0.0146   0.0136  -0.0104  -0.0156   0.00    2.1
2026/04/30 11:39:00.000    -20265.5010     -8132.2007       -29.4533   2   5   0.0249   0.0113   0.0146   0.0136  -0.0104  -0.0156   0.00    2.2
2026/04/30 11:39:30.000    -20265.4998     -8132.2003       -29.4531   2   5   0.0248   0.0112   0.0146   0.0136  -0.0103  -0.0156   0.00    2.3
2026/04/30 11:40:00.000    -20265.4987     -8132.1999       -29.4534   2   5   0.0248   0.0112   0.0146   0.0136  -0.0103  -0.0156   0.00    2.4
2026/04/30 11:40:30.000    -20265.4972     -8132.1992       -29.4529   2   5   0.0248   0.0112   0.0145   0.0136  -0.0103  -0.0156   0.00    2.3
2026/04/30 11:41:00.000    -20265.4961     -8132.1983       -29.4533   2   5   0.0247   0.0112   0.0145   0.0135  -0.0103  -0.0156   0.00    2.3
2026/04/30 11:41:30.000    -20265.4954     -8132.1977       -29.4535   2   5   0.0247   0.0112   0.0145   0.0135  -0.0103  -0.0157   0.00    2.3
2026/04/30 11:42:00.000    -20265.4951     -8132.1975       -29.4535   2   5   0.0247   0.0111   0.0145   0.0135  -0.0103  -0.0157   0.00    2.3
2026/04/30 11:42:30.000    -20265.4951     -8132.1978       -29.4532   2   5   0.0247   0.0111   0.0145   0.0135  -0.0103  -0.0157   0.00    2.2
2026/04/30 11:43:00.000    -20265.4949     -8132.1976       -29.4531   2   5   0.0246   0.0111   0.0145   0.0135  -0.0103  -0.0157   0.00    2.2
2026/04/30 11:43:30.000    -20265.4948     -8132.1982       -29.4524   2   5   0.0246   0.0111   0.0144   0.0135  -0.0103  -0.0157   0.00    2.3
2026/04/30 11:44:00.000    -20265.4945     -8132.1984       -29.4523   2   5   0.0246   0.0111   0.0144   0.0135  -0.0103  -0.0157   0.00    2.3
2026/04/30 11:44:30.000    -20265.4942     -8132.1988       -29.4518   2   5   0.0245   0.0111   0.0144   0.0135  -0.0103  -0.0157   0.00    2.4
2026/04/30 11:45:00.000    -20265.4936     -8132.1989       -29.4521   2   5   0.0245   0.0110   0.0144   0.0135  -0.0103  -0.0157   0.00    2.4
2026/04/30 11:45:30.000    -20265.4926     -8132.1994       -29.4514   2   5   0.0245   0.0110   0.0144   0.0134  -0.0103  -0.0157   0.00    2.3
2026/04/30 11:46:00.000    -20265.4921     -8132.1992       -29.4516   2   5   0.0245   0.0110   0.0144   0.0134  -0.0103  -0.0157   0.00    2.2
2026/04/30 11:46:30.000    -20265.4915     -8132.1990       -29.4519   2   5   0.0244   0.0110   0.0143   0.0134  -0.0102  -0.0157   0.00    2.2
2026/04/30 11:47:00.000    -20265.4908     -8132.1991       -29.4518   2   5   0.0244   0.0110   0.0143   0.0134  -0.0102  -0.0157   0.00    2.1
2026/04/30 11:47:30.000    -20265.4904     -8132.1993       -29.4516   2   5   0.0244   0.0109   0.0143   0.0134  -0.0102  -0.0157   0.00    2.1
2026/04/30 11:48:00.000    -20265.4902     -8132.1998       -29.4515   2   5   0.0243   0.0109   0.0143   0.0134  -0.0102  -0.0157   0.00    2.0
2026/04/30 11:48:30.000    -20265.4890     -8132.1997       -29.4511   2   5   0.0243   0.0109   0.0143   0.0134  -0.0102  -0.0157   0.00    2.0
2026/04/30 11:49:00.000    -20265.4889     -8132.1999       -29.4508   2   5   0.0243   0.0109   0.0143   0.0134  -0.0102  -0.0157   0.00    1.9
2026/04/30 11:49:30.000    -20265.4886     -8132.1996       -29.4513   2   5   0.0243   0.0109   0.0142   0.0133  -0.0102  -0.0157   0.00    1.9
2026/04/30 11:50:00.000    -20265.4886     -8132.1998       -29.4511   2   5   0.0242   0.0109   0.0142   0.0133  -0.0102  -0.0157   0.00    1.8
2026/04/30 11:50:30.000    -20265.4878     -8132.1995       -29.4512   2   5   0.0242   0.0108   0.0142   0.0133  -0.0102  -0.0157   0.00    1.8
2026/04/30 11:51:00.000    -20265.4874     -8132.1992       -29.4515   2   5   0.0242   0.0108   0.0142   0.0133  -0.0102  -0.0157   0.00    1.8
2026/04/30 11:51:30.000    -20265.4861     -8132.1988       -29.4515   2   5   0.0241   0.0108   0.0142   0.0133  -0.0102  -0.0157   0.00    1.8
2026/04/30 11:52:00.000    -20265.4857     -8132.1985       -29.4516   2   5   0.0241   0.0108   0.0142   0.0133  -0.0101  -0.0157   0.00    1.8
2026/04/30 11:52:30.000    -20265.4853     -8132.1984       -29.4516   2   5   0.0241   0.0108   0.0141   0.0132  -0.0101  -0.0157   0.00    1.7
2026/04/30 11:53:00.000    -20265.4846     -8132.1981       -29.4515   2   5   0.0240   0.0107   0.0141   0.0132  -0.0101  -0.0157   0.00    1.7
2026/04/30 11:53:30.000    -20265.4836     -8132.1977       -29.4516   2   5   0.0240   0.0107   0.0141   0.0132  -0.0101  -0.0157   0.00    1.7
2026/04/30 11:54:00.000    -20265.4824     -8132.1980       -29.4512   2   5   0.0240   0.0107   0.0141   0.0132  -0.0101  -0.0157   0.00    1.7
2026/04/30 11:54:30.000    -20265.4813     -8132.1984       -29.4510   2   5   0.0239   0.0107   0.0141   0.0132  -0.0101  -0.0156   0.00    1.7
2026/04/30 11:55:00.000    -20265.4811     -8132.1985       -29.4516   2   5   0.0239   0.0107   0.0140   0.0132  -0.0101  -0.0156   0.00    1.6
2026/04/30 11:55:30.000    -20265.4803     -8132.1990       -29.4510   2   5   0.0239   0.0107   0.0140   0.0131  -0.0101  -0.0156   0.00    1.6
2026/04/30 11:56:00.000    -20265.4794     -8132.1994       -29.4507   2   5   0.0238   0.0106   0.0140   0.0131  -0.0100  -0.0156   0.00    1.6
2026/04/30 11:56:30.000    -20265.4790     -8132.1991       -29.4510   2   5   0.0238   0.0106   0.0140   0.0131  -0.0100  -0.0156   0.00    1.6
2026/04/30 11:57:00.000    -20265.4786     -8132.1989       -29.4507   2   5   0.0237   0.0106   0.0140   0.0131  -0.0100  -0.0156   0.00    1.6
2026/04/30 11:57:30.000    -20265.4783     -8132.1987       -29.4510   2   5   0.0237   0.0106   0.0139   0.0131  -0.0100  -0.0156   0.00    1.6
2026/04/30 11:58:00.000    -20265.4774     -8132.1981       -29.4515   2   5   0.0237   0.0106   0.0139   0.0130  -0.0100  -0.0156   0.00    1.5
2026/04/30 11:58:30.000    -20265.4768     -8132.1981       -29.4509   2   5   0.0236   0.0105   0.0139   0.0130  -0.0100  -0.0155   0.00    1.5
2026/04/30 11:59:00.000    -20265.4768     -8132.1980       -29.4508   2   5   0.0236   0.0105   0.0139   0.0130  -0.0100  -0.0155   0.00    1.5
2026/04/30 11:59:30.000    -20265.4759     -8132.1977       -29.4511   2   5   0.0236   0.0105   0.0138   0.0130  -0.0099  -0.0155   0.00    1.5
