% program   : RTKLIB ver.2.4.2
% inp file  : /tmp/cd-phase1-data/trim/PASA00ESP_R_20261201000_02H_30S_MO.rnx
% inp file  : /tmp/cd-phase1-data/trim/SCOA00FRA_R_20261201000_02H_30S_MO.rnx
% inp file  : /tmp/cd-phase1-data/trim/BRDC00WRD_R_20261200800_06H_MN.rnx
% inp file  : /tmp/cd-phase1-data/trim/igs_fin.sp3
% inp file  : /tmp/cd-phase1-data/trim/igs_fin.clk
% obs start : 2026/04/30 10:00:00.0 GPST (week2416 381600.0s)
% obs end   : 2026/04/30 11:59:30.0 GPST (week2416 388770.0s)
% pos mode  : static
% freqs     : L1
% solution  : forward
% elev mask : 15.0 deg
% dynamics  : off
% tidecorr  : on
% ionos opt : broadcast
% tropo opt : saastamoinen
% ephemeris : precise
% amb res   : fix and hold
% val thres : 3.0
% antenna1  : LEIAR20         LEIM  ( 0.0000  0.0000  0.0000)
% antenna2  : TRM55971.00     NONE  ( 0.0000  0.0000  0.0000)
% ref pos   : 43.395237929   -1.681673607    59.4577
%
% (e/n/u-baseline=WGS84,Q=1:fix,2:float,3:sbas,4:dgps,5:single,6:ppp,ns=# of satellites)
%  GPST                  e-baseline(m)  n-baseline(m)  u-baseline(m)   Q  ns   sde(m)   sdn(m)   sdu(m)  sden(m)  sdnu(m)  sdue(m) age(s)  ratio
2026/04/30 10:00:00.000    -20265.2736     -8132.3686       -29.6632   2   4   0.7018   1.8333   2.2209  -0.2458   1.5090   0.2243   0.00    1.7
2026/04/30 10:00:30.000    -20265.3192     -8132.0696       -29.2086   2   4   0.4969   0.9751   1.3057  -0.0152   0.7097   0.2161   0.00    1.2
2026/04/30 10:01:00.000    -20265.3946     -8132.1494       -29.1831   1   4   0.0041   0.0108   0.0132  -0.0015   0.0091   0.0014   0.00    4.1
2026/04/30 10:01:30.000    -20265.3940     -8132.1496       -29.1828   1   4   0.0036   0.0094   0.0115  -0.0013   0.0079   0.0011   0.00   13.4
2026/04/30 10:02:00.000    -20265.4691     -8132.1708       -29.2308   2   4   0.3093   0.3215   0.5227   0.1106   0.1029   0.1342   0.00    1.9
2026/04/30 10:02:30.000    -20265.5277     -8132.2005       -29.2846   2   4   0.2802   0.2528   0.4218   0.1060   0.0364   0.1165   0.00    1.5
2026/04/30 10:03:00.000    -20265.5594     -8132.1874       -29.2984   2   4   0.2570   0.2058   0.3487   0.1009  -0.0402   0.1025   0.00    1.4
2026/04/30 10:03:30.000    -20265.6356     -8132.2105       -29.2181   1   4   0.0025   0.0068   0.0084  -0.0010   0.0059   0.0007   0.00    5.2
2026/04/30 10:04:00.000    -20265.6354     -8132.2115       -29.2179   1   4   0.0024   0.0065   0.0079  -0.0009   0.0056   0.0006   0.00   27.6
2026/04/30 10:04:30.000    -20265.6351     -8132.2121       -29.2175   1   4   0.0022   0.0062   0.0076  -0.0009   0.0054   0.0006   0.00   36.5
2026/04/30 10:05:00.000    -20265.6202     -8132.2175       -29.3148   2   4   0.1955   0.1120   0.1922   0.0818  -0.0434   0.0678   0.00    2.6
2026/04/30 10:05:30.000    -20265.6054     -8132.2055       -29.3479   2   4   0.1845   0.0997   0.1705   0.0778  -0.0401   0.0622   0.00    1.0
2026/04/30 10:06:00.000    -20265.5899     -8132.2100       -29.4256   2   4   0.1745   0.0895   0.1525   0.0740  -0.0371   0.0572   0.00    1.9
2026/04/30 10:06:30.000    -20265.5758     -8132.2156       -29.4670   2   4   0.1655   0.0811   0.1375   0.0705  -0.0343   0.0528   0.00    2.1
2026/04/30 10:07:00.000    -20265.5504     -8132.2116       -29.4942   2   4   0.1571   0.0739   0.1247   0.0672  -0.0318   0.0489   0.00    2.6
2026/04/30 10:07:30.000    -20265.5445     -8132.2298       -29.5063   2   4   0.1495   0.0678   0.1138   0.0641  -0.0296   0.0453   0.00    1.5
2026/04/30 10:08:00.000    -20265.5397     -8132.2544       -29.4888   2   4   0.1423   0.0626   0.1044   0.0612  -0.0276   0.0421   0.00    1.3
2026/04/30 10:08:30.000    -20265.5297     -8132.2656       -29.4946   2   4   0.1357   0.0580   0.0962   0.0585  -0.0259   0.0391   0.00    1.0
2026/04/30 10:09:00.000    -20265.5352     -8132.2914       -29.4783   2   4   0.1295   0.0540   0.0890   0.0559  -0.0243   0.0364   0.00    1.1
2026/04/30 10:09:30.000    -20265.5397     -8132.3024       -29.4757   2   4   0.1237   0.0504   0.0826   0.0535  -0.0229   0.0339   0.00    1.2
2026/04/30 10:10:00.000    -20265.5456     -8132.3132       -29.4682   2   4   0.1183   0.0472   0.0770   0.0512  -0.0217   0.0316   0.00    1.2
2026/04/30 10:10:30.000    -20265.5685     -8132.3315       -29.4550   2   4   0.1132   0.0444   0.0720   0.0490  -0.0206   0.0294   0.00    1.1
2026/04/30 10:11:00.000    -20265.6082     -8132.3481       -29.4431   2   4   0.1084   0.0418   0.0675   0.0470  -0.0197   0.0273   0.00    1.1
2026/04/30 10:11:30.000    -20265.6391     -8132.3607       -29.4357   2   4   0.1038   0.0395   0.0635   0.0451  -0.0188   0.0254   0.00    1.1
2026/04/30 10:12:00.000    -20265.6715     -8132.3752       -29.4188   2   4   0.0996   0.0374   0.0598   0.0432  -0.0180   0.0236   0.00    1.3
2026/04/30 10:12:30.000    -20265.7116     -8132.3812       -29.4196   2   4   0.0955   0.0355   0.0565   0.0415  -0.0173   0.0219   0.00    1.2
2026/04/30 10:13:00.000    -20265.7421     -8132.3845       -29.4269   2   4   0.0917   0.0337   0.0535   0.0399  -0.0166   0.0203   0.00    1.1
2026/04/30 10:13:30.000    -20265.7693     -8132.3897       -29.4198   2   4   0.0881   0.0321   0.0507   0.0383  -0.0161   0.0188   0.00    1.1
2026/04/30 10:14:00.000    -20265.7882     -8132.3940       -29.4202   2   4   0.0847   0.0306   0.0482   0.0369  -0.0155   0.0173   0.00    1.0
2026/04/30 10:14:30.000    -20265.8044     -8132.3957       -29.4282   2   4   0.0815   0.0293   0.0459   0.0355  -0.0150   0.0160   0.00    1.1
2026/04/30 10:15:00.000    -20265.8116     -8132.3975       -29.4200   2   4   0.0784   0.0280   0.0438   0.0342  -0.0145   0.0146   0.00    1.1
2026/04/30 10:15:30.000    -20265.8166     -8132.4028       -29.4055   2   4   0.0756   0.0268   0.0418   0.0329  -0.0141   0.0133   0.00    1.1
2026/04/30 10:16:00.000    -20265.8102     -8132.3995       -29.3972   2   4   0.0728   0.0257   0.0400   0.0318  -0.0137   0.0121   0.00    1.0
2026/04/30 10:16:30.000    -20265.8033     -8132.3973       -29.3892   2   4   0.0702   0.0247   0.0383   0.0306  -0.0133   0.0109   0.00    1.0
2026/04/30 10:17:00.000    -20265.7925     -8132.3905       -29.3861   2   4   0.0677   0.0237   0.0367   0.0296  -0.0130   0.0097   0.00    1.0
2026/04/30 10:17:30.000    -20265.7850     -8132.3852       -29.3777   2   4   0.0654   0.0228   0.0352   0.0286  -0.0127   0.0085   0.00    1.1
2026/04/30 10:18:00.000    -20265.7750     -8132.3764       -29.3781   2   4   0.0631   0.0220   0.0339   0.0276  -0.0124   0.0072   0.00    1.1
2026/04/30 10:18:30.000    -20265.7636     -8132.3667       -29.3807   2   4   0.0610   0.0212   0.0326   0.0267  -0.0121   0.0060   0.00    1.2
2026/04/30 10:19:00.000    -20265.7538     -8132.3563       -29.3824   2   5   0.0589   0.0204   0.0314   0.0258  -0.0118   0.0045   0.00    1.1
2026/04/30 10:19:30.000    -20265.7433     -8132.3476       -29.3850   2   5   0.0570   0.0197   0.0303   0.0250  -0.0115   0.0025   0.00    1.3
2026/04/30 10:20:00.000    -20265.7433     -8132.3428       -29.3822   2   5   0.0551   0.0191   0.0292   0.0242  -0.0113  -0.0024   0.00    1.4
2026/04/30 10:20:30.000    -20265.7351     -8132.3360       -29.3829   2   5   0.0534   0.0184   0.0282   0.0234  -0.0110  -0.0040   0.00    1.4
2026/04/30 10:21:00.000    -20265.7315     -8132.3330       -29.3759   2   5   0.0517   0.0179   0.0273   0.0227  -0.0108  -0.0050   0.00    1.3
2026/04/30 10:21:30.000    -20265.7323     -8132.3323       -29.3692   2   5   0.0501   0.0173   0.0264   0.0220  -0.0106  -0.0057   0.00    1.3
2026/04/30 10:22:00.000    -20265.7237     -8132.3280       -29.3709   2   5   0.0486   0.0168   0.0256   0.0213  -0.0104  -0.0063   0.00    1.3
2026/04/30 10:22:30.000    -20265.7200     -8132.3257       -29.3682   2   5   0.0471   0.0163   0.0248   0.0207  -0.0102  -0.0068   0.00    1.3
2026/04/30 10:23:00.000    -20265.7036     -8132.3194       -29.3724   2   5   0.0457   0.0158   0.0241   0.0201  -0.0100  -0.0071   0.00    1.2
2026/04/30 10:23:30.000    -20265.6994     -8132.3162       -29.3709   2   5   0.0444   0.0153   0.0234   0.0195  -0.0098  -0.0074   0.00    1.1
2026/04/30 10:24:00.000    -20265.6890     -8132.3117       -29.3721   2   5   0.0431   0.0149   0.0227   0.0190  -0.0096  -0.0077   0.00    1.1
2026/04/30 10:24:30.000    -20265.6772     -8132.3074       -29.3715   2   5   0.0419   0.0145   0.0221   0.0185  -0.0095  -0.0079   0.00    1.0
2026/04/30 10:25:00.000    -20265.6661     -8132.3051       -29.3684   2   5   0.0407   0.0141   0.0215   0.0180  -0.0093  -0.0081   0.00    1.1
2026/04/30 10:25:30.000    -20265.6510     -8132.3000       -29.3688   2   5   0.0396   0.0137   0.0209   0.0175  -0.0092  -0.0082   0.00    1.2
2026/04/30 10:26:00.000    -20265.6457     -8132.2979       -29.3642   2   5   0.0386   0.0134   0.0203   0.0170  -0.0090  -0.0083   0.00    1.3
2026/04/30 10:26:30.000    -20265.6391     -8132.2931       -29.3676   2   5   0.0375   0.0131   0.0198   0.0166  -0.0089  -0.0084   0.00    1.3
2026/04/30 10:27:00.000    -20265.6326     -8132.2892       -29.3686   2   5   0.0366   0.0127   0.0193   0.0162  -0.0087  -0.0085   0.00    1.4
2026/04/30 10:27:30.000    -20265.6325     -8132.2866       -29.3656   2   5   0.0356   0.0124   0.0188   0.0158  -0.0086  -0.0086   0.00    1.4
2026/04/30 10:28:00.000    -20265.6312     -8132.2828       -29.3642   2   5   0.0347   0.0121   0.0184   0.0154  -0.0084  -0.0086   0.00    1.5
2026/04/30 10:28:30.000    -20265.6331     -8132.2794       -29.3650   2   5   0.0339   0.0118   0.0179   0.0150  -0.0083  -0.0087   0.00    1.6
2026/04/30 10:29:00.000    -20265.6350     -8132.2770       -29.3651   2   5   0.0330   0.0116   0.0175   0.0147  -0.0082  -0.0087   0.00    1.7
2026/04/30 10:29:30.000    -20265.6357     -8132.2745       -29.3644   2   5   0.0322   0.0113   0.0171   0.0144  -0.0081  -0.0087   0.00    1.8
2026/04/30 10:30:00.000    -20265.6402     -8132.2747       -29.3596   2   5   0.0315   0.0111   0.0167   0.0140  -0.0079  -0.0087   0.00    1.8
2026/04/30 10:30:30.000    -20265.6408     -8132.2735       -29.3597   2   5   0.0307   0.0108   0.0164   0.0137  -0.0078  -0.0087   0.00    1.9
2026/04/30 10:31:00.000    -20265.6405     -8132.2724       -29.3572   2   5   0.0300   0.0106   0.0160   0.0134  -0.0077  -0.0087   0.00    2.0
2026/04/30 10:31:30.000    -20265.6362     -8132.2704       -29.3555   2   5   0.0294   0.0104   0.0157   0.0131  -0.0076  -0.0087   0.00    2.1
2026/04/30 10:32:00.000    -20265.6340     -8132.2686       -29.3530   2   5   0.0287   0.0102   0.0154   0.0129  -0.0075  -0.0087   0.00    2.1
2026/04/30 10:32:30.000    -20265.6356     -8132.2673       -29.3500   2   5   0.0281   0.0100   0.0151   0.0126  -0.0074  -0.0086   0.00    2.2
2026/04/30 10:33:00.000    -20265.6317     -8132.2652       -29.3491   2   5   0.0275   0.0098   0.0148   0.0123  -0.0073  -0.0086   0.00    2.3
2026/04/30 10:33:30.000    -20265.6269     -8132.2627       -29.3483   2   5   0.0269   0.0096   0.0145   0.0121  -0.0072  -0.0086   0.00    2.4
2026/04/30 10:34:00.000    -20265.6207     -8132.2607       -29.3486   2   5   0.0263   0.0094   0.0142   0.0118  -0.0071  -0.0086   0.00    2.5
2026/04/30 10:34:30.000    -20265.6145     -8132.2593       -29.3481   2   5   0.0258   0.0092   0.0139   0.0116  -0.0070  -0.0085   0.00    2.6
2026/04/30 10:35:00.000    -20265.6119     -8132.2588       -29.3438   2   5   0.0252   0.0091   0.0137   0.0114  -0.0069  -0.0085   0.00    2.7
2026/04/30 10:35:30.000    -20265.6060     -8132.2572       -29.3419   2   5   0.0247   0.0089   0.0134   0.0112  -0.0069  -0.0085   0.00    2.8
2026/04/30 10:36:00.000    -20265.6016     -8132.2561       -29.3392   2   5   0.0242   0.0087   0.0132   0.0110  -0.0068  -0.0084   0.00    2.9
2026/04/30 10:36:30.000    -20265.5990     -8132.2555       -29.3369   2   5   0.0238   0.0086   0.0129   0.0108  -0.0067  -0.0084   0.00    3.0
2026/04/30 10:37:00.000    -20265.4855     -8132.1816       -29.3524   1   5   0.0009   0.0020   0.0031  -0.0008   0.0020  -0.0008   0.00    3.1
2026/04/30 10:37:30.000    -20265.4855     -8132.1821       -29.3525   1   5   0.0009   0.0020   0.0031  -0.0008   0.0020  -0.0008   0.00    3.2
2026/04/30 10:38:00.000    -20265.4855     -8132.1824       -29.3526   1   5   0.0009   0.0020   0.0031  -0.0007   0.0019  -0.0008   0.00    3.3
2026/04/30 10:38:30.000    -20265.4856     -8132.1826       -29.3524   1   5   0.0009   0.0020   0.0031  -0.0007   0.0019  -0.0008   0.00    3.3
2026/04/30 10:39:00.000    -20265.4856     -8132.1828       -29.3525   1   5   0.0009   0.0020   0.0030  -0.0007   0.0019  -0.0008   0.00    3.4
2026/04/30 10:39:30.000    -20265.4856     -8132.1831       -29.3524   1   5   0.0009   0.0019   0.0030  -0.0007   0.0019  -0.0008   0.00    3.4
2026/04/30 10:40:00.000    -20265.4857     -8132.1834       -29.3521   1   5   0.0009   0.0019   0.0030  -0.0007   0.0018  -0.0008   0.00    3.4
2026/04/30 10:40:30.000    -20265.4857     -8132.1836       -29.3518   1   5   0.0009   0.0019   0.0030  -0.0007   0.0018  -0.0008   0.00    3.4
2026/04/30 10:41:00.000    -20265.4857     -8132.1839       -29.3514   1   5   0.0009   0.0019   0.0030  -0.0007   0.0018  -0.0008   0.00    3.4
2026/04/30 10:41:30.000    -20265.4857     -8132.1841       -29.3514   1   5   0.0009   0.0019   0.0030  -0.0007   0.0018  -0.0008   0.00    3.5
2026/04/30 10:42:00.000    -20265.4856     -8132.1842       -29.3514   1   5   0.0009   0.0018   0.0029  -0.0007   0.0018  -0.0008   0.00   73.4
2026/04/30 10:42:30.000    -20265.4856     -8132.1844       -29.3512   1   5   0.0009   0.0018   0.0029  -0.0007   0.0018  -0.0008   0.00  161.9
2026/04/30 10:43:00.000    -20265.4855     -8132.1847       -29.3516   1   5   0.0009   0.0018   0.0029  -0.0007   0.0017  -0.0008   0.00  268.7
2026/04/30 10:43:30.000    -20265.4856     -8132.1849       -29.3517   1   5   0.0009   0.0018   0.0029  -0.0007   0.0017  -0.0008   0.00  370.6
2026/04/30 10:44:00.000    -20265.4857     -8132.1851       -29.3520   1   5   0.0009   0.0018   0.0029  -0.0007   0.0017  -0.0008   0.00  488.0
2026/04/30 10:44:30.000    -20265.4857     -8132.1853       -29.3524   1   5   0.0009   0.0017   0.0029  -0.0007   0.0017  -0.0008   0.00  635.7
2026/04/30 10:45:00.000    -20265.4858     -8132.1855       -29.3527   1   5   0.0009   0.0017   0.0029  -0.0007   0.0017  -0.0008   0.00  792.1
2026/04/30 10:45:30.000    -20265.4857     -8132.1856       -29.3532   1   5   0.0008   0.0017   0.0029  -0.0007   0.0016  -0.0008   0.00  971.6
2026/04/30 10:46:00.000    -20265.4857     -8132.1857       -29.3536   1   5   0.0008   0.0017   0.0028  -0.0007   0.0016  -0.0008   0.00  999.9
2026/04/30 10:46:30.000    -20265.4858     -8132.1858       -29.3541   1   5   0.0008   0.0017   0.0028  -0.0007   0.0016  -0.0008   0.00  999.9
2026/04/30 10:47:00.000    -20265.4858     -8132.1857       -29.3543   1   5   0.0008   0.0017   0.0028  -0.0007   0.0016  -0.0008   0.00  999.9
2026/04/30 10:47:30.000    -20265.4858     -8132.1858       -29.3547   1   5   0.0008   0.0017   0.0028  -0.0007   0.0016  -0.0008   0.00  999.9
2026/04/30 10:48:00.000    -20265.4857     -8132.1858       -29.3551   1   5   0.0008   0.0016   0.0028  -0.0007   0.0016  -0.0008   0.00  999.9
2026/04/30 10:48:30.000    -20265.4856     -8132.1860       -29.3554   1   5   0.0008   0.0016   0.0028  -0.0007   0.0016  -0.0008   0.00  999.9
2026/04/30 10:49:00.000    -20265.4854     -8132.1862       -29.3559   1   5   0.0008   0.0016   0.0028  -0.0007   0.0015  -0.0008   0.00  999.9
2026/04/30 10:49:30.000    -20265.4853     -8132.1864       -29.3564   1   5   0.0008   0.0016   0.0028  -0.0007   0.0015  -0.0008   0.00  999.9
2026/04/30 10:50:00.000    -20265.4852     -8132.1865       -29.3567   1   5   0.0008   0.0016   0.0028  -0.0007   0.0015  -0.0008   0.00  999.9
2026/04/30 10:50:30.000    -20265.4851     -8132.1866       -29.3574   1   5   0.0008   0.0016   0.0027  -0.0007   0.0015  -0.0008   0.00  999.9
2026/04/30 10:51:00.000    -20265.4851     -8132.1868       -29.3579   1   5   0.0008   0.0016   0.0027  -0.0007   0.0015  -0.0007   0.00  999.9
2026/04/30 10:51:30.000    -20265.4850     -8132.1868       -29.3583   1   5   0.0008   0.0015   0.0027  -0.0006   0.0015  -0.0007   0.00  999.9
2026/04/30 10:52:00.000    -20265.4850     -8132.1870       -29.3589   1   5   0.0008   0.0015   0.0027  -0.0006   0.0014  -0.0007   0.00  999.9
2026/04/30 10:52:30.000    -20265.4850     -8132.1871       -29.3593   1   5   0.0008   0.0015   0.0027  -0.0006   0.0014  -0.0007   0.00  999.9
2026/04/30 10:53:00.000    -20265.4850     -8132.1872       -29.3598   1   5   0.0008   0.0015   0.0027  -0.0006   0.0014  -0.0007   0.00  999.9
2026/04/30 10:53:30.000    -20265.4850     -8132.1873       -29.3603   1   5   0.0008   0.0015   0.0027  -0.0006   0.0014  -0.0007   0.00  999.9
2026/04/30 10:54:00.000    -20265.4849     -8132.1875       -29.3609   1   5   0.0008   0.0015   0.0027  -0.0006   0.0014  -0.0007   0.00  999.9
2026/04/30 10:54:30.000    -20265.4849     -8132.1876       -29.3615   1   5   0.0008   0.0015   0.0027  -0.0006   0.0014  -0.0007   0.00  999.9
2026/04/30 10:55:00.000    -20265.4849     -8132.1877       -29.3621   1   5   0.0008   0.0015   0.0027  -0.0006   0.0014  -0.0007   0.00  999.9
2026/04/30 10:55:30.000    -20265.4849     -8132.1879       -29.3628   1   5   0.0008   0.0014   0.0026  -0.0006   0.0013  -0.0007   0.00  999.9
2026/04/30 10:56:00.000    -20265.4849     -8132.1880       -29.3635   1   5   0.0008   0.0014   0.0026  -0.0006   0.0013  -0.0007   0.00  999.9
2026/04/30 10:56:30.000    -20265.4850     -8132.1883       -29.3642   1   5   0.0008   0.0014   0.0026  -0.0006   0.0013  -0.0007   0.00  999.9
2026/04/30 10:57:00.000    -20265.4850     -8132.1885       -29.3651   1   5   0.0008   0.0014   0.0026  -0.0006   0.0013  -0.0007   0.00  999.9
2026/04/30 10:57:30.000    -20265.4850     -8132.1888       -29.3659   1   5   0.0008   0.0014   0.0026  -0.0006   0.0013  -0.0007   0.00  999.9
2026/04/30 10:58:00.000    -20265.4850     -8132.1891       -29.3669   1   5   0.0008   0.0014   0.0026  -0.0006   0.0013  -0.0007   0.00  974.6
2026/04/30 10:58:30.000    -20265.4858     -8132.1899       -29.3649   1   4   0.0008   0.0014   0.0027  -0.0006   0.0012  -0.0008   0.00  999.9
2026/04/30 10:59:00.000    -20265.4859     -8132.1901       -29.3652   1   4   0.0008   0.0014   0.0027  -0.0006   0.0012  -0.0008   0.00  999.9
2026/04/30 10:59:30.000    -20265.4861     -8132.1904       -29.3654   1   4   0.0008   0.0014   0.0027  -0.0006   0.0012  -0.0008   0.00  999.9
2026/04/30 11:00:00.000    -20265.4863     -8132.1906       -29.3655   1   4   0.0008   0.0013   0.0027  -0.0006   0.0012  -0.0008   0.00  999.9
2026/04/30 11:00:30.000    -20265.4865     -8132.1908       -29.3657   1   4   0.0008   0.0013   0.0027  -0.0006   0.0012  -0.0008   0.00  999.9
2026/04/30 11:01:00.000    -20265.4868     -8132.1909       -29.3657   1   4   0.0008   0.0013   0.0027  -0.0005   0.0012  -0.0007   0.00  999.9
2026/04/30 11:01:30.000    -20265.4870     -8132.1910       -29.3657   1   4   0.0008   0.0013   0.0027  -0.0005   0.0011  -0.0007   0.00  999.9
2026/04/30 11:02:00.000    -20265.4872     -8132.1910       -29.3656   1   4   0.0008   0.0013   0.0027  -0.0005   0.0011  -0.0007   0.00  999.9
2026/04/30 11:02:30.000    -20265.4874     -8132.1911       -29.3656   1   4   0.0008   0.0013   0.0026  -0.0005   0.0011  -0.0007   0.00  999.9
2026/04/30 11:03:00.000    -20265.4875     -8132.1911       -29.3656   1   4   0.0008   0.0013   0.0026  -0.0005   0.0011  -0.0007   0.00  999.9
2026/04/30 11:03:30.000    -20265.4877     -8132.1911       -29.3656   1   4   0.0008   0.0013   0.0026  -0.0005   0.0011  -0.0007   0.00  999.9
2026/04/30 11:04:00.000    -20265.4879     -8132.1910       -29.3654   1   4   0.0008   0.0013   0.0026  -0.0005   0.0011  -0.0007   0.00  999.9
2026/04/30 11:04:30.000    -20265.4880     -8132.1910       -29.3653   1   4   0.0008   0.0013   0.0026  -0.0005   0.0011  -0.0007   0.00  999.9
2026/04/30 11:05:00.000    -20265.4882     -8132.1909       -29.3652   1   4   0.0008   0.0012   0.0026  -0.0005   0.0011  -0.0007   0.00  999.9
2026/04/30 11:05:30.000    -20265.4883     -8132.1909       -29.3651   1   4   0.0008   0.0012   0.0026  -0.0005   0.0011  -0.0007   0.00  999.9
2026/04/30 11:06:00.000    -20265.4884     -8132.1909       -29.3650   1   4   0.0008   0.0012   0.0026  -0.0005   0.0010  -0.0007   0.00  999.9
2026/04/30 11:06:30.000    -20265.4885     -8132.1909       -29.3650   1   4   0.0008   0.0012   0.0026  -0.0005   0.0010  -0.0007   0.00  999.9
2026/04/30 11:07:00.000    -20265.4886     -8132.1911       -29.3651   1   4   0.0008   0.0012   0.0026  -0.0005   0.0010  -0.0007   0.00  999.9
2026/04/30 11:07:30.000    -20265.4886     -8132.1912       -29.3652   1   4   0.0008   0.0012   0.0026  -0.0005   0.0010  -0.0007   0.00  999.9
2026/04/30 11:08:00.000    -20265.4887     -8132.1913       -29.3652   1   4   0.0008   0.0012   0.0026  -0.0005   0.0010  -0.0007   0.00  999.9
2026/04/30 11:08:30.000    -20265.4888     -8132.1914       -29.3653   1   4   0.0008   0.0012   0.0026  -0.0005   0.0010  -0.0007   0.00  999.9
2026/04/30 11:09:00.000    -20265.4888     -8132.1916       -29.3654   1   4   0.0008   0.0012   0.0026  -0.0005   0.0010  -0.0007   0.00  999.9
2026/04/30 11:09:30.000    -20265.4887     -8132.1917       -29.3655   1   4   0.0008   0.0012   0.0026  -0.0005   0.0010  -0.0007   0.00  999.9
2026/04/30 11:10:00.000    -20265.4888     -8132.1919       -29.3655   1   4   0.0008   0.0012   0.0026  -0.0005   0.0009  -0.0007   0.00  999.9
2026/04/30 11:10:30.000    -20265.4888     -8132.1920       -29.3656   1   4   0.0008   0.0011   0.0026  -0.0005   0.0009  -0.0007   0.00  999.9
2026/04/30 11:11:00.000    -20265.4888     -8132.1921       -29.3656   1   4   0.0008   0.0011   0.0026  -0.0005   0.0009  -0.0007   0.00  999.9
2026/04/30 11:11:30.000    -20265.4888     -8132.1922       -29.3655   1   4   0.0007   0.0011   0.0026  -0.0005   0.0009  -0.0007   0.00  999.9
2026/04/30 11:12:00.000    -20265.4888     -8132.1924       -29.3655   1   4   0.0007   0.0011   0.0026  -0.0005   0.0009  -0.0007   0.00  999.9
2026/04/30 11:12:30.000    -20265.4888     -8132.1925       -29.3655   1   4   0.0007   0.0011   0.0026  -0.0005   0.0009  -0.0007   0.00  999.9
2026/04/30 11:13:00.000    -20265.4889     -8132.1925       -29.3654   1   4   0.0007   0.0011   0.0025  -0.0005   0.0009  -0.0006   0.00  999.9
2026/04/30 11:13:30.000    -20265.4888     -8132.1925       -29.3654   1   4   0.0007   0.0011   0.0025  -0.0005   0.0009  -0.0006   0.00  999.9
2026/04/30 11:14:00.000    -20265.4889     -8132.1925       -29.3654   1   4   0.0007   0.0011   0.0025  -0.0005   0.0009  -0.0006   0.00  999.9
2026/04/30 11:14:30.000    -20265.4889     -8132.1925       -29.3654   1   4   0.0007   0.0011   0.0025  -0.0005   0.0008  -0.0006   0.00  999.9
2026/04/30 11:15:00.000    -20265.4890     -8132.1926       -29.3655   1   4   0.0007   0.0011   0.0025  -0.0005   0.0008  -0.0006   0.00  999.9
2026/04/30 11:15:30.000    -20265.4890     -8132.1928       -29.3656   1   4   0.0007   0.0011   0.0025  -0.0005   0.0008  -0.0006   0.00  999.9
2026/04/30 11:16:00.000    -20265.4890     -8132.1928       -29.3659   1   4   0.0007   0.0011   0.0025  -0.0005   0.0008  -0.0006   0.00  999.9
2026/04/30 11:16:30.000    -20265.4890     -8132.1930       -29.3661   1   4   0.0007   0.0011   0.0025  -0.0005   0.0008  -0.0006   0.00  999.9
2026/04/30 11:17:00.000    -20265.4890     -8132.1931       -29.3662   1   4   0.0007   0.0011   0.0025  -0.0005   0.0008  -0.0006   0.00  999.9
2026/04/30 11:17:30.000    -20265.4890     -8132.1931       -29.3665   1   4   0.0007   0.0011   0.0025  -0.0004   0.0008  -0.0006   0.00  999.9
2026/04/30 11:18:00.000    -20265.4890     -8132.1931       -29.3667   1   4   0.0007   0.0010   0.0025  -0.0004   0.0008  -0.0006   0.00  999.9
2026/04/30 11:18:30.000    -20265.4889     -8132.1931       -29.3669   1   4   0.0007   0.0010   0.0025  -0.0004   0.0008  -0.0006   0.00  999.9
2026/04/30 11:19:00.000    -20265.4889     -8132.1931       -29.3672   1   4   0.0007   0.0010   0.0025  -0.0004   0.0008  -0.0006   0.00  999.9
2026/04/30 11:19:30.000    -20265.4889     -8132.1932       -29.3674   1   4   0.0007   0.0010   0.0025  -0.0004   0.0007  -0.0006   0.00  999.9
2026/04/30 11:20:00.000    -20265.4889     -8132.1932       -29.3677   1   4   0.0007   0.0010   0.0025  -0.0004   0.0007  -0.0006   0.00  999.9
2026/04/30 11:20:30.000    -20265.4888     -8132.1932       -29.3681   1   4   0.0007   0.0010   0.0025  -0.0004   0.0007  -0.0005   0.00  999.9
2026/04/30 11:21:00.000    -20265.4888     -8132.1932       -29.3684   1   4   0.0007   0.0010   0.0025  -0.0004   0.0007  -0.0005   0.00  999.9
2026/04/30 11:21:30.000    -20265.4888     -8132.1932       -29.3687   1   4   0.0007   0.0010   0.0024  -0.0004   0.0007  -0.0005   0.00  999.9
2026/04/30 11:22:00.000    -20265.4887     -8132.1933       -29.3690   1   4   0.0007   0.0010   0.0024  -0.0004   0.0007  -0.0005   0.00  999.9
2026/04/30 11:22:30.000    -20265.4886     -8132.1934       -29.3695   1   4   0.0007   0.0010   0.0024  -0.0004   0.0007  -0.0005   0.00  999.9
2026/04/30 11:23:00.000    -20265.4885     -8132.1934       -29.3700   1   4   0.0007   0.0010   0.0024  -0.0004   0.0007  -0.0005   0.00  999.9
2026/04/30 11:23:30.000    -20265.4884     -8132.1935       -29.3705   1   4   0.0007   0.0010   0.0024  -0.0004   0.0007  -0.0005   0.00  999.9
2026/04/30 11:24:00.000    -20265.4883     -8132.1936       -29.3710   1   4   0.0007   0.0010   0.0024  -0.0004   0.0006  -0.0005   0.00  999.9
2026/04/30 11:24:30.000    -20265.4882     -8132.1937       -29.3714   1   4   0.0007   0.0010   0.0024  -0.0004   0.0006  -0.0005   0.00  999.9
2026/04/30 11:25:00.000    -20265.4881     -8132.1938       -29.3720   1   4   0.0007   0.0010   0.0024  -0.0004   0.0006  -0.0005   0.00  999.9
2026/04/30 11:25:30.000    -20265.4880     -8132.1939       -29.3727   1   4   0.0007   0.0010   0.0024  -0.0004   0.0006  -0.0005   0.00  999.9
2026/04/30 11:26:00.000    -20265.4879     -8132.1941       -29.3733   1   4   0.0007   0.0010   0.0024  -0.0004   0.0006  -0.0005   0.00  999.9
2026/04/30 11:26:30.000    -20265.4878     -8132.1943       -29.3737   1   4   0.0007   0.0010   0.0024  -0.0004   0.0006  -0.0005   0.00  999.9
2026/04/30 11:27:00.000    -20265.4878     -8132.1944       -29.3742   1   4   0.0007   0.0009   0.0024  -0.0004   0.0006  -0.0004   0.00  999.9
2026/04/30 11:27:30.000    -20265.4877     -8132.1945       -29.3747   1   4   0.0007   0.0009   0.0024  -0.0004   0.0006  -0.0004   0.00  999.9
2026/04/30 11:28:00.000    -20265.4876     -8132.1947       -29.3753   1   4   0.0007   0.0009   0.0024  -0.0004   0.0006  -0.0004   0.00  999.9
2026/04/30 11:28:30.000    -20265.4875     -8132.1949       -29.3759   1   4   0.0007   0.0009   0.0023  -0.0004   0.0006  -0.0004   0.00  999.9
2026/04/30 11:29:00.000    -20265.4874     -8132.1951       -29.3764   1   4   0.0007   0.0009   0.0023  -0.0004   0.0005  -0.0004   0.00  999.9
2026/04/30 11:29:30.000    -20265.4873     -8132.1953       -29.3769   1   4   0.0007   0.0009   0.0023  -0.0004   0.0005  -0.0004   0.00  999.9
2026/04/30 11:30:00.000    -20265.4872     -8132.1955       -29.3774   1   4   0.0007   0.0009   0.0023  -0.0004   0.0005  -0.0004   0.00  999.9
2026/04/30 11:30:30.000    -20265.4871     -8132.1957       -29.3779   1   4   0.0007   0.0009   0.0023  -0.0004   0.0005  -0.0004   0.00  999.9
2026/04/30 11:31:00.000    -20265.4870     -8132.1959       -29.3782   1   4   0.0007   0.0009   0.0023  -0.0004   0.0005  -0.0004   0.00  999.9
2026/04/30 11:31:30.000    -20265.4869     -8132.1961       -29.3786   1   4   0.0007   0.0009   0.0023  -0.0004   0.0005  -0.0004   0.00  999.9
2026/04/30 11:32:00.000    -20265.4868     -8132.1963       -29.3789   1   4   0.0007   0.0009   0.0023  -0.0004   0.0005  -0.0004   0.00  999.9
2026/04/30 11:32:30.000    -20265.4867     -8132.1965       -29.3792   1   4   0.0007   0.0009   0.0023  -0.0004   0.0005  -0.0003   0.00  999.9
2026/04/30 11:33:00.000    -20265.4866     -8132.1966       -29.3795   1   4   0.0007   0.0009   0.0023  -0.0004   0.0005  -0.0003   0.00  999.9
2026/04/30 11:33:30.000    -20265.4865     -8132.1968       -29.3798   1   4   0.0007   0.0009   0.0023  -0.0004   0.0005  -0.0003   0.00  999.9
2026/04/30 11:34:00.000    -20265.4865     -8132.1968       -29.3802   1   4   0.0007   0.0009   0.0023  -0.0004   0.0004  -0.0003   0.00  999.9
2026/04/30 11:34:30.000    -20265.4864     -8132.1969       -29.3805   1   4   0.0007   0.0009   0.0023  -0.0004   0.0004  -0.0003   0.00  999.9
2026/04/30 11:35:00.000    -20265.4863     -8132.1971       -29.3809   1   4   0.0007   0.0009   0.0022  -0.0004   0.0004  -0.0003   0.00  999.9
2026/04/30 11:35:30.000    -20265.4863     -8132.1971       -29.3813   1   4   0.0007   0.0009   0.0022  -0.0004   0.0004  -0.0003   0.00  999.9
2026/04/30 11:36:00.000    -20265.4862     -8132.1972       -29.3815   1   4   0.0007   0.0009   0.0022  -0.0004   0.0004  -0.0003   0.00  999.9
2026/04/30 11:36:30.000    -20265.4862     -8132.1972       -29.3817   1   4   0.0007   0.0009   0.0022  -0.0004   0.0004  -0.0003   0.00  999.9
2026/04/30 11:37:00.000    -20265.4862     -8132.1972       -29.3818   1   4   0.0007   0.0009   0.0022  -0.0004   0.0004  -0.0002   0.00  999.9
2026/04/30 11:37:30.000    -20265.4863     -8132.1972       -29.3822   1   5   0.0007   0.0009   0.0022  -0.0004   0.0004  -0.0002   0.00    5.0
2026/04/30 11:38:00.000    -20265.4864     -8132.1972       -29.3826   1   5   0.0007   0.0009   0.0022  -0.0004   0.0003  -0.0002   0.00  423.5
2026/04/30 11:38:30.000    -20265.4864     -8132.1971       -29.3830   1   5   0.0007   0.0009   0.0022  -0.0004   0.0003  -0.0002   0.00  858.4
2026/04/30 11:39:00.000    -20265.4865     -8132.1970       -29.3833   1   5   0.0007   0.0009   0.0022  -0.0004   0.0003  -0.0002   0.00  999.9
2026/04/30 11:39:30.000    -20265.4865     -8132.1969       -29.3836   1   5   0.0007   0.0009   0.0022  -0.0004   0.0003  -0.0002   0.00  999.9
2026/04/30 11:40:00.000    -20265.4866     -8132.1968       -29.3840   1   5   0.0006   0.0008   0.0021  -0.0004   0.0003  -0.0002   0.00  999.9
2026/04/30 11:40:30.000    -20265.4866     -8132.1966       -29.3844   1   5   0.0006   0.0008   0.0021  -0.0004   0.0003  -0.0002   0.00  999.9
2026/04/30 11:41:00.000    -20265.4867     -8132.1964       -29.3848   1   5   0.0006   0.0008   0.0021  -0.0004   0.0003  -0.0002   0.00  999.9
2026/04/30 11:41:30.000    -20265.4868     -8132.1963       -29.3852   1   5   0.0006   0.0008   0.0021  -0.0004   0.0002  -0.0002   0.00  999.9
2026/04/30 11:42:00.000    -20265.4869     -8132.1962       -29.3856   1   5   0.0006   0.0008   0.0021  -0.0004   0.0002  -0.0001   0.00  999.9
2026/04/30 11:42:30.000    -20265.4869     -8132.1961       -29.3859   1   5   0.0006   0.0008   0.0021  -0.0004   0.0002  -0.0001   0.00  999.9
2026/04/30 11:43:00.000    -20265.4870     -8132.1960       -29.3862   1   5   0.0006   0.0008   0.0021  -0.0004   0.0002  -0.0001   0.00  999.9
2026/04/30 11:43:30.000    -20265.4871     -8132.1960       -29.3864   1   5   0.0006   0.0008   0.0021  -0.0004   0.0002  -0.0001   0.00  999.9
2026/04/30 11:44:00.000    -20265.4872     -8132.1960       -29.3868   1   5   0.0006   0.0008   0.0021  -0.0004   0.0001  -0.0001   0.00  999.9
2026/04/30 11:44:30.000    -20265.4873     -8132.1959       -29.3870   1   5   0.0006   0.0008   0.0020  -0.0004   0.0001  -0.0001   0.00  999.9
2026/04/30 11:45:00.000    -20265.4874     -8132.1959       -29.3872   1   5   0.0006   0.0008   0.0020  -0.0004   0.0001  -0.0000   0.00  999.9
2026/04/30 11:45:30.000    -20265.4876     -8132.1959       -29.3872   1   5   0.0006   0.0008   0.0020  -0.0004   0.0000   0.0000   0.00  999.9
2026/04/30 11:46:00.000    -20265.4876     -8132.1959       -29.3875   1   5   0.0006   0.0008   0.0020  -0.0004  -0.0001   0.0001   0.00  999.9
2026/04/30 11:46:30.000    -20265.4877     -8132.1958       -29.3877   1   5   0.0006   0.0008   0.0020  -0.0004  -0.0001   0.0001   0.00  999.9
2026/04/30 11:47:00.000    -20265.4878     -8132.1958       -29.3878   1   5   0.0006   0.0008   0.0020  -0.0004  -0.0001   0.0001   0.00  999.9
2026/04/30 11:47:30.000    -20265.4879     -8132.1957       -29.3879   1   5   0.0006   0.0008   0.0020  -0.0004  -0.0002   0.0001   0.00  999.9
2026/04/30 11:48:00.000    -20265.4880     -8132.1957       -29.3880   1   5   0.0006   0.0008   0.0020  -0.0004  -0.0002   0.0001   0.00  999.9
2026/04/30 11:48:30.000    -20265.4881     -8132.1957       -29.3879   1   5   0.0006   0.0008   0.0020  -0.0004  -0.0002   0.0001   0.00  999.9
2026/04/30 11:49:00.000    -20265.4882     -8132.1957       -29.3879   1   5   0.0006   0.0008   0.0019  -0.0004  -0.0002   0.0001   0.00  999.9
2026/04/30 11:49:30.000    -20265.4883     -8132.1956       -29.3879   1   5   0.0006   0.0008   0.0019  -0.0004  -0.0002   0.0001   0.00  999.9
2026/04/30 11:50:00.000    -20265.4884     -8132.1957       -29.3878   1   5   0.0006   0.0008   0.0019  -0.0004  -0.0002   0.0002   0.00  999.9
2026/04/30 11:50:30.000    -20265.4885     -8132.1957       -29.3877   1   5   0.0006   0.0008   0.0019  -0.0004  -0.0002   0.0002   0.00  999.9
2026/04/30 11:51:00.000    -20265.4886     -8132.1956       -29.3876   1   5   0.0006   0.0008   0.0019  -0.0004  -0.0002   0.0002   0.00  999.9
2026/04/30 11:51:30.000    -20265.4888     -8132.1956       -29.3875   1   5   0.0006   0.0008   0.0019  -0.0004  -0.0002   0.0002   0.00  999.9
2026/04/30 11:52:00.000    -20265.4889     -8132.1955       -29.3875   1   5   0.0006   0.0008   0.0019  -0.0004  -0.0003   0.0002   0.00  999.9
2026/04/30 11:52:30.000    -20265.4890     -8132.1955       -29.3875   1   5   0.0006   0.0008   0.0019  -0.0003  -0.0003   0.0002   0.00  999.9
2026/04/30 11:53:00.000    -20265.4891     -8132.1955       -29.3875   1   5   0.0006   0.0008   0.0019  -0.0003  -0.0003   0.0002   0.00  999.9
2026/04/30 11:53:30.000    -20265.4893     -8132.1955       -29.3874   1   5   0.0006   0.0008   0.0019  -0.0003  -0.0003   0.0002   0.00  999.9
2026/04/30 11:54:00.000    -20265.4894     -8132.1956       -29.3873   1   5   0.0006   0.0008   0.0018  -0.0003  -0.0003   0.0002   0.00  999.9
2026/04/30 11:54:30.000    -20265.4895     -8132.1956       -29.3872   1   5   0.0006   0.0008   0.0018  -0.0003  -0.0003   0.0002   0.00  999.9
2026/04/30 11:55:00.000    -20265.4896     -8132.1956       -29.3872   1   5   0.0006   0.0008   0.0018  -0.0003  -0.0003   0.0002   0.00  999.9
2026/04/30 11:55:30.000    -20265.4898     -8132.1956       -29.3872   1   5   0.0006   0.0008   0.0018  -0.0003  -0.0003   0.0002   0.00  999.9
2026/04/30 11:56:00.000    -20265.4899     -8132.1957       -29.3871   1   5   0.0006   0.0008   0.0018  -0.0003  -0.0003   0.0002   0.00  999.9
2026/04/30 11:56:30.000    -20265.4900     -8132.1957       -29.3872   1   5   0.0006   0.0008   0.0018  -0.0003  -0.0003   0.0002   0.00  999.9
2026/04/30 11:57:00.000    -20265.4901     -8132.1957       -29.3873   1   5   0.0006   0.0008   0.0018  -0.0003  -0.0003   0.0002   0.00  999.9
2026/04/30 11:57:30.000    -20265.4902     -8132.1957       -29.3874   1   5   0.0006   0.0008   0.0018  -0.0003  -0.0003   0.0002   0.00  999.9
2026/04/30 11:58:00.000    -20265.4904     -8132.1956       -29.3875   1   5   0.0006   0.0008   0.0018  -0.0003  -0.0003   0.0002   0.00  999.9
2026/04/30 11:58:30.000    -20265.4905     -8132.1956       -29.3876   1   5   0.0006   0.0008   0.0018  -0.0003  -0.0003   0.0002   0.00  999.9
2026/04/30 11:59:00.000    -20265.4906     -8132.1955       -29.3877   1   5   0.0006   0.0008   0.0018  -0.0003  -0.0003   0.0002   0.00  999.9
2026/04/30 11:59:30.000    -20265.4907     -8132.1954       -29.3879   1   5   0.0006   0.0008   0.0017  -0.0003  -0.0003   0.0002   0.00  999.9
